ACARA_ID,School_Name,Suburb,State,Postcode,Type,Sector,Status,Geolocation,Parent_School ID,AGE_ID,Latitude,Longitude
48096,A B Paterson College,Arundel,QLD,4214,Combined,Non-Gov,Open,Major Cities,48096,53495,-27.9277,153.36
44003,A.G.B.U. Alexander Primary School,Duffys Forest,NSW,2084,Primary,Non-Gov,Open,Major Cities,44003,53399,-33.67679,151.18715
44370,Abbotsford Primary School,Abbotsford,VIC,3067,Primary,Gov,Open,Major Cities,44370,48050,-37.8091,144.999
40987,Abbotsford Public School,Abbotsford,NSW,2046,Primary,Gov,Open,Major Cities,40987,44402,-33.8527,151.131
43762,Abbotsleigh,Wahroonga,NSW,2076,Combined,Non-Gov,Open,Major Cities,43762,41302,-33.7199,151.111
52056,Abbotsleigh Junior School,Wahroonga,NSW,2076,Primary,Non-Gov,Open,Major Cities,43762,,-33.7162,151.113
46801,Abercorn State School,Abercorn,QLD,4627,Primary,Gov,Open,Outer Regional,46801,52692,-25.136,151.127
41852,Aberdeen Public School,Aberdeen,NSW,2336,Primary,Gov,Open,Inner Regional,41852,49333,-32.1661,150.888
44727,Aberfeldie Primary School,Essendon,VIC,3040,Primary,Gov,Open,Major Cities,44727,44744,-37.7566,144.896
49360,Aberfoyle Hub Primary School,Aberfoyle Park,SA,5159,Primary,Gov,Open,Major Cities,49360,62782,-35.0781,138.595
49663,Aberfoyle Park High School,Aberfoyle Park,SA,5159,Secondary,Gov,Open,Major Cities,49663,57389,-35.0732,138.595
47089,Abergowrie State School,Abergowrie,QLD,4850,Primary,Gov,Open,Remote,47089,53072,-18.4748,145.884
41853,Abermain Public School,Abermain,NSW,2326,Primary,Gov,Open,Major Cities,41853,49299,-32.8089,151.426
48059,Aboriginal & Islander Independent Community School,Acacia Ridge,QLD,4110,Combined,Non-Gov,Open,Major Cities,48059,45894,-27.5812,153.026
50072,Acacia Hill School,Sadadeen,NT,871,Special,Gov,Open,Remote,50072,56524,-23.7007,133.898
46412,Acacia Ridge State School,Acacia Ridge,QLD,4110,Primary,Gov,Open,Major Cities,46412,51264,-27.5796,153.016
45704,Academy of Mary Immaculate,Fitzroy,VIC,3065,Secondary,Non-Gov,Open,Major Cities,45704,40739,-37.8037,144.974
48264,Adam Road Primary School,South Bunbury,WA,6230,Primary,Gov,Open,Inner Regional,48264,52443,-33.3593,115.634
42715,Adaminaby Public School,Adaminaby,NSW,2629,Primary,Gov,Open,Outer Regional,42715,50425,-35.9933,148.777
41854,Adamstown Public School,Adamstown,NSW,2289,Primary,Gov,Open,Major Cities,41854,49043,-32.9322,151.731
46213,Adass Israel School,Elsternwick,VIC,3185,Combined,Non-Gov,Open,Major Cities,46213,40740,-37.8839,145.008
52146,Adass Israel School - Glen Eira Road Campus,Elsternwick,VIC,3185,Combined,Non-Gov,Open,Major Cities,46213,,-37.8769,144.998
46214,Adass Israel School - Orrong Road Campus,Elsternwick,VIC,3185,Combined,Non-Gov,Open,Major Cities,46213,77561,-37.8835,145.006
52576,Adelaide Botanic High School,Adelaide,SA,5000,Secondary,Gov,Open,Major Cities,52576,86089,-34.91691,138.60659
49559,Adelaide East Education Centre,Campbelltown,SA,5074,Special,Gov,Open,Major Cities,49559,56481,-34.873,138.673
49453,Adelaide High School,Adelaide,SA,5000,Secondary,Gov,Open,Major Cities,49453,46053,-34.9257,138.587
52254,Adelaide International School,Adelaide,SA,5000,Secondary,Non-Gov,Open,Major Cities,52254,,-34.923,138.604
49340,Adelaide North Special School,Munno Para West,SA,5115,Special,Gov,Open,Major Cities,49340,54717,-34.6636,138.68494
50073,Adelaide River School,Adelaide River,NT,846,Combined,Gov,Open,Remote,50073,47937,-13.2371,131.109
49664,Adelaide Secondary School of English,West Croydon,SA,5008,Secondary,Gov,Open,Major Cities,49664,56470,-34.8864,138.566
49643,Adelaide West Special Education Centre,Taperoo,SA,5017,Special,Gov,Open,Major Cities,49643,69047,-34.8012,138.494
42530,Adelong Public School,Adelong,NSW,2729,Primary,Gov,Open,Inner Regional,42530,50667,-35.3123,148.063
52378,Advance College of Education Incorporated,Rosebud West,VIC,3940,Special,Non-Gov,Open,Major Cities,52378,70348,-38.3827,144.885
52379,Advance College of Education Incorporated - Hastings Hub,Hastings,VIC,3915,Special,Non-Gov,Open,Major Cities,52378,77721,-38.2973,145.185
52430,Advance College of Education Incorporated - Mornington Campus,Mornington,VIC,3931,Special,Non-Gov,Open,Major Cities,52378,80102,-38.2329,145.036
43780,Aetaomah School,Terragon,NSW,2484,Combined,Non-Gov,Open,Inner Regional,43780,55898,-28.4591,153.27
42326,Afterlee Public School,Afterlee,NSW,2474,Primary,Gov,Open,Inner Regional,42326,49750,-28.5823,152.818
47391,Agnes Water State School,Agnes Water,QLD,4677,Primary,Gov,Open,Outer Regional,47391,54448,-24.214,151.911
44886,Ainslie Parklands Primary School,Croydon,VIC,3136,Primary,Gov,Open,Major Cities,44886,48451,-37.7938,145.264
49910,Ainslie School,Braddon,ACT,2612,Primary,Gov,Open,Major Cities,49910,44753,-35.2737,149.14
52936,Aintree Primary School,Aintree,VIC,3336,Primary,Gov,Open,Major Cities,52936,87627,-37.722252,144.665973
49549,Airdale Primary School,Port Pirie,SA,5540,Primary,Gov,Open,Outer Regional,49549,47431,-33.2005,137.99
41594,Airds High School,Campbelltown,NSW,2560,Secondary,Gov,Open,Major Cities,41594,46504,-34.0869,150.827
52492,Aireys Inlet Primary School,Aireys Inlet,VIC,3231,Primary,Gov,Open,Inner Regional,52492,24997,-38.4574,144.11
44716,Airly Primary School,Airly,VIC,3851,Primary,Gov,Open,Inner Regional,44716,52022,-38.0257,147.114
46805,Airville State School,Airville,QLD,4807,Primary,Gov,Open,Outer Regional,46805,52995,-19.6552,147.348
46353,Aitken College,Greenvale,VIC,3059,Combined,Non-Gov,Open,Major Cities,46353,56324,-37.6274,144.888
50266,Aitken Creek Primary School,Craigieburn,VIC,3064,Primary,Gov,Open,Major Cities,50266,68550,-37.582,144.906
52696,Aitken Hill Primary School,Craigieburn,VIC,3064,Primary,Gov,Open,Major Cities,52696,86085,-37.6022,144.907
46899,Aitkenvale State School,Aitkenvale,QLD,4814,Primary,Gov,Open,Outer Regional,46899,53020,-19.2965,146.763
41548,Ajuga School,Glenfield,NSW,2167,Special,Gov,Open,Major Cities,41548,56152,-33.9695,150.878
43919,Al Amanah College,Liverpool,NSW,2170,Combined,Non-Gov,Open,Major Cities,43919,77397,-33.929,150.922
43852,"Al Amanah College, Bankstown campus",Bankstown,NSW,2200,Primary,Non-Gov,Open,Major Cities,43919,55684,-33.9172,151.028
50603,Al Hikma College,Lakemba,NSW,2195,Primary,Non-Gov,Open,Major Cities,50603,69666,-33.9262,151.081
52380,Al Iman College,Melton South,VIC,3338,Combined,Non-Gov,Open,Major Cities,52380,70322,-37.707,144.565
43958,Al Noori Muslim School,Greenacre,NSW,2190,Primary,Non-Gov,Open,Major Cities,43958,53329,-33.9118,151.05
40979,Al Noori Muslim School - Senior Campus,Greenacre,NSW,2190,Secondary,Non-Gov,Open,Major Cities,43958,77580,-33.9112,151.049
43741,Al Sadiq College,Greenacre,NSW,2190,Combined,Non-Gov,Open,Major Cities,43741,58093,-33.9099,151.056
40720,Al Sadiq College Yagoona Campus,Yagoona,NSW,2199,Primary,Non-Gov,Open,Major Cities,43741,77542,-33.9041,151.024
46390,Al Siraat College,Epping,VIC,3076,Combined,Non-Gov,Open,Major Cities,46390,68556,-37.6243,145.038
43946,Al Zahra College,Arncliffe,NSW,2205,Combined,Non-Gov,Open,Major Cities,43946,54651,-33.9337,151.148
50567,Alamanda K-9 College,Point Cook,VIC,3030,Combined,Gov,Open,Major Cities,50567,69975,-37.9083,144.741
49138,Al-Ameen College,Langford,WA,6147,Combined,Non-Gov,Open,Major Cities,49138,58091,-32.0442,115.937
50010,Alawa Primary School,Alawa,NT,810,Primary,Gov,Open,Outer Regional,50010,47967,-12.3802,130.878
45065,Albanvale Primary School,Albanvale,VIC,3021,Primary,Gov,Open,Major Cities,45065,47558,-37.7443,144.774
47534,Albany Creek State High School,Albany Creek,QLD,4035,Secondary,Gov,Open,Major Cities,47534,51169,-27.3573,152.969
46546,Albany Creek State School,Albany Creek,QLD,4035,Primary,Gov,Open,Major Cities,46546,51170,-27.3461,152.971
47310,Albany Hills State School,Albany Creek,QLD,4035,Primary,Gov,Open,Major Cities,47310,51171,-27.3604,152.973
48265,Albany Primary School,Albany,WA,6330,Primary,Gov,Open,Outer Regional,48265,52534,-35.0182,117.891
45217,Albany Rise Primary School,Mulgrave,VIC,3170,Primary,Gov,Open,Major Cities,45217,49086,-37.9284,145.173
48851,Albany Secondary Education Support Centre,Albany,WA,6330,Special,Gov,Open,Outer Regional,48851,57391,-34.9911,117.863
48116,Albany Senior High School,Albany,WA,6330,Secondary,Gov,Open,Outer Regional,48116,52535,-35.0198,117.892
50267,Albert Park College,Albert Park,VIC,3206,Secondary,Gov,Open,Major Cities,50267,69044,-37.8444,144.947
52157,Albert Park College-Environmental Arts Hub,Albert Park,VIC,3207,Secondary,Gov,Open,Major Cities,50267,30353,-37.8425,144.939
40769,Albert Park Flexible Learning Centre,Milton,QLD,4064,Special,Non-Gov,Open,Major Cities,40769,65123,-27.4662,153.011
44224,Albert Park Primary School,Albert Park,VIC,3206,Primary,Gov,Open,Major Cities,44224,56670,-37.8418,144.952
42339,Albert Park Public School,East Lismore,NSW,2480,Primary,Gov,Open,Inner Regional,42339,49776,-28.8216,153.272
46424,Albert State School,Maryborough,QLD,4650,Primary,Gov,Open,Inner Regional,46424,52699,-25.5468,152.704
49198,Alberton Primary School,Queenstown,SA,5014,Primary,Gov,Open,Major Cities,49198,46905,-34.8627,138.513
44030,Alberton Primary School,Alberton,VIC,3971,Primary,Gov,Open,Inner Regional,44030,52213,-38.6178,146.667
44875,Albion North Primary School,Sunshine North,VIC,3020,Primary,Gov,Open,Major Cities,44875,47548,-37.7627,144.824
42936,Albion Park High School,Albion Park,NSW,2527,Secondary,Gov,Open,Major Cities,42936,54950,-34.5767,150.773
42716,Albion Park Public School,Albion Park,NSW,2527,Primary,Gov,Open,Major Cities,42716,50020,-34.5703,150.773
42861,Albion Park Rail Public School,Albion Park,NSW,2527,Primary,Gov,Open,Major Cities,42861,50021,-34.5676,150.799
44732,Albion Primary School,Albion,VIC,3020,Primary,Gov,Open,Major Cities,44732,47549,-37.7779,144.82
40100,Albuera Street Primary School,Battery Point,TAS,7004,Primary,Gov,Open,Inner Regional,40100,48051,-42.8912,147.326
42689,Albury High School,Albury,NSW,2640,Secondary,Gov,Open,Inner Regional,42689,50438,-36.0728,146.915
42654,Albury North Public School,Albury,NSW,2640,Primary,Gov,Open,Inner Regional,42654,50440,-36.0642,146.932
42531,Albury Public School,Albury,NSW,2640,Primary,Gov,Open,Inner Regional,42531,50441,-36.0825,146.919
42532,Albury West Public School,Albury,NSW,2640,Primary,Gov,Open,Inner Regional,42532,50442,-36.0778,146.896
50074,Alcoota School,Engawala,NT,872,Combined,Gov,Open,Very Remote,50074,56525,-22.8024,134.455
42356,Aldavilla Public School,Yarravel,NSW,2440,Primary,Gov,Open,Inner Regional,42356,56175,-31.0558,152.787
44987,Aldercourt Primary School,Frankston North,VIC,3200,Primary,Gov,Open,Major Cities,44987,49446,-38.1166,145.162
49204,Aldgate Primary School,Aldgate,SA,5154,Primary,Gov,Open,Major Cities,49204,47178,-35.0195,138.749
49212,Aldinga Beach Primary School,Aldinga,SA,5173,Primary,Gov,Open,Major Cities,49212,47131,-35.2693,138.462
53035,Aldinga Payinthi College,Aldinga,SA,5173,Combined,Gov,Open,Major Cities,53035,87611,-35.26771678,138.470119
47419,Aldridge State High School,Maryborough,QLD,4650,Secondary,Gov,Open,Inner Regional,47419,46589,-25.5166,152.689
50054,Alekarenge School,Ali Curung,NT,872,Combined,Gov,Open,Very Remote,50054,47898,-21.0038,134.406
40724,Alesco Senior College,Cooks Hill,NSW,2300,Special,Non-Gov,Open,Major Cities,40724,58110,-32.9294,151.768
52072,Alesco Senior College - Cessnock Campus,Cessnock,NSW,2325,Special,Non-Gov,Open,Inner Regional,40724,86389,-32.8373,151.353
53001,Alesco Senior College - Charlestown Campus,Charlestown,NSW,2290,Special,Non-Gov,Open,Major Cities,40724,87662,-32.96278368,151.6928001
52306,Alesco Senior College - Coast Campus,Tuncurry,NSW,2428,Special,Non-Gov,Open,Inner Regional,40724,77702,-32.1793,152.5
52891,Alesco Senior College - Northlakes Campus,Argenton,NSW,2284,Special,Non-Gov,Open,Major Cities,40724,87663,-32.93757,151.63106
52612,Alesco Senior College - Tomaree Campus,Nelson Bay,NSW,2315,Special,Non-Gov,Open,Inner Regional,40724,86562,-32.721,152.154
52307,"Alesco Senior College, Raymond Terrace Campus",Raymond Terrace,NSW,2324,Special,Non-Gov,Open,Major Cities,40724,77701,-32.764,151.742
47373,Alexandra Bay State School,Diwan,QLD,4873,Primary,Gov,Open,Remote,47373,54473,-16.2139,145.422
47553,Alexandra Hills State High School,Alexandra Hills,QLD,4161,Secondary,Gov,Open,Major Cities,47553,55033,-27.524,153.215
53127,Alexandra Hills TAFE Senior Studies Program,Alexandra Hills,QLD,4157,Secondary,Gov,Open,Major Cities,47553,,-27.523968,153.215116
46686,Alexandra Hills State School,Alexandra Hills,QLD,4161,Primary,Gov,Open,Major Cities,46686,51346,-27.5183,153.221
44166,Alexandra Primary School,Alexandra,VIC,3714,Primary,Gov,Open,Inner Regional,44166,51685,-37.1925,145.712
45349,Alexandra Secondary College,Alexandra,VIC,3714,Secondary,Gov,Open,Inner Regional,45349,51684,-37.1945,145.701
41184,Alexandria Park Community School,Alexandria,NSW,2015,Combined,Gov,Open,Major Cities,41184,46425,-33.9002,151.196
43952,Al-Faisal College,Auburn,NSW,2144,Combined,Non-Gov,Open,Major Cities,43952,55403,-33.8548,151.032
53107,Al-Faisal College - Lakemba,Lakemba,NSW,2195,Primary,Non-Gov,Open,Major Cities,43952,,-33.92383288,151.0768608
50593,Al-Faisal College - Campbelltown,Minto,NSW,2566,Combined,Non-Gov,Open,Major Cities,50593,70306,-34.0222,150.858
51520,Al-Faisal College - Liverpool,Austral,NSW,2179,Combined,Non-Gov,Open,Major Cities,51520,70305,-33.9095,150.811
41115,Alfords Point Public School,Alfords Point,NSW,2234,Primary,Gov,Open,Major Cities,41115,56155,-33.9924,151.024
49911,Alfred Deakin High School,Deakin,ACT,2600,Secondary,Gov,Open,Major Cities,49911,50303,-35.3243,149.095
44196,Alfredton Primary School,Alfredton,VIC,3350,Primary,Gov,Open,Inner Regional,44196,50116,-37.555,143.802
47289,Algester State School,Algester,QLD,4115,Primary,Gov,Open,Major Cities,47289,51276,-27.6157,153.032
49106,Al-Hidayah Islamic School,Bentley,WA,6102,Primary,Non-Gov,Open,Major Cities,49106,54323,-32.0113,115.911
46354,Alia College,Hawthorn East,VIC,3123,Secondary,Non-Gov,Open,Major Cities,46354,56610,-37.8432,145.045
52381,Alice Miller School,Macedon,VIC,3440,Combined,Non-Gov,Open,Inner Regional,52381,70324,-37.4466,144.532
46379,Alice Miller School - Candlebark Campus,Romsey,VIC,3434,Combined,Non-Gov,Open,Inner Regional,52381,77712,-37.3723,144.688
50008,Alice Springs School Of The Air,Alice Springs,NT,870,Combined,Gov,Open,Remote,50008,47879,-23.6781,133.866
52942,Alice Springs School Of The Air - Corella Creek Campus,Corella Creek,NT,860,Combined,Gov,Open,Very Remote,50008,,-18.643466,136.029808
50157,Alice Springs Steiner School,Ross,NT,873,Combined,Non-Gov,Open,Remote,50157,55415,-23.7438,133.882
48691,Alinjarra Primary School,Alexander Heights,WA,6064,Primary,Gov,Open,Major Cities,48691,54933,-31.8293,115.87
50319,Alkimos Baptist College,Merriwa,WA,6030,Combined,Non-Gov,Open,Major Cities,50319,69059,-31.6604,115.711
52262,Alkimos Beach Primary School,Alkimos,WA,6038,Primary,Gov,Open,Major Cities,52262,84839,-31.6237,115.698
52490,Alkimos College,Alkimos,WA,6038,Secondary,Gov,Open,Major Cities,52490,86441,-31.6285,115.696
52261,Alkimos Primary School,Alkimos,WA,6038,Primary,Gov,Open,Major Cities,52261,70344,-31.627,115.703
45604,Alkira Secondary College,Cranbourne North,VIC,3977,Secondary,Gov,Open,Major Cities,45604,68854,-38.0733,145.311
43567,All Hallows Catholic Primary School,Gulgong,NSW,2852,Primary,Non-Gov,Open,Outer Regional,43567,41305,-32.3614,149.534
43404,All Hallows Catholic Primary School,Five Dock,NSW,2046,Primary,Non-Gov,Open,Major Cities,43404,41306,-33.8609,151.134
47882,All Hallows' School,Brisbane,QLD,4000,Combined,Non-Gov,Open,Major Cities,47882,57217,-27.4606,153.033
48002,All Saints Anglican School,Merrimac,QLD,4226,Combined,Non-Gov,Open,Major Cities,48002,45512,-28.0609,153.361
43422,All Saints Catholic College,Liverpool,NSW,2170,Combined,Non-Gov,Open,Major Cities,43422,41831,-33.9191,150.926
52877,"All Saints Catholic College, Casula Campus",Casula,NSW,2170,Secondary,Non-Gov,Open,Major Cities,43422,46733,-33.95386,150.90747
49784,All Saints Catholic Primary School,Seaford,SA,5169,Primary,Non-Gov,Open,Major Cities,49784,54129,-35.1861,138.48
40618,All Saints College,Maitland,NSW,2320,Secondary,Non-Gov,Open,Major Cities,40618,53863,-32.7378,151.56
43318,All Saints College (St Peter's),Maitland,NSW,2320,Secondary,Non-Gov,Open,Major Cities,40618,77181,-32.7343,151.559
49049,All Saints' College,Bull Creek,WA,6149,Combined,Non-Gov,Open,Major Cities,49049,42755,-32.0513,115.866
53119,All Saints' College - Adelaide Street Campus,Fremantle,WA,6160,Secondary,Non-Gov,Open,Major Cities,49049,,-32.05357179,115.7473778
53118,All Saints' College - Parry Street Campus,Fremantle,WA,6160,Secondary,Non-Gov,Open,Major Cities,49049,,-32.05630623,115.7496226
40892,All Saints Grammar,Belmore,NSW,2192,Secondary,Non-Gov,Open,Major Cities,40892,77271,-33.9295,151.095
43959,All Saints Grammar Junior School,Belmore,NSW,2192,Primary,Non-Gov,Open,Major Cities,40892,53416,-33.9153,151.091
45736,All Saints Parish School,Portland,VIC,3305,Primary,Non-Gov,Open,Outer Regional,45736,57978,-38.3595,141.593
47925,All Saints Primary School,Albany Creek,QLD,4035,Primary,Non-Gov,Open,Major Cities,47925,45610,-27.35,152.971
43616,All Saints Primary School,Tumbarumba,NSW,2653,Primary,Non-Gov,Open,Outer Regional,43616,41309,-35.7787,148.013
47743,All Saints' School,Boonah,QLD,4310,Primary,Non-Gov,Open,Inner Regional,47743,40409,-27.9999,152.686
48001,All Souls St Gabriels School,Charters Towers,QLD,4820,Combined,Non-Gov,Open,Outer Regional,48001,56723,-20.0629,146.277
41281,Allambie Heights Public School,Allambie Heights,NSW,2100,Primary,Gov,Open,Major Cities,41281,47706,-33.7658,151.252
44031,Allansford and District Primary School,Allansford,VIC,3277,Primary,Gov,Open,Inner Regional,44031,49862,-38.3863,142.59
48266,Allanson Primary School,Allanson,WA,6225,Primary,Gov,Open,Inner Regional,48266,52436,-33.3358,116.099
52437,Allegra School Coffs Harbour,Coffs Harbour,NSW,2450,Special,Non-Gov,Open,Inner Regional,52437,80024,-30.2976,153.115
49337,Allenby Gardens Primary School,Allenby Gardens,SA,5009,Primary,Gov,Open,Major Cities,49337,46894,-34.9021,138.555
49436,Allendale East Area School,Allendale East,SA,5291,Combined,Gov,Open,Outer Regional,49436,47315,-38.003,140.71
48267,Allendale Primary School,Geraldton,WA,6530,Primary,Gov,Open,Outer Regional,48267,52651,-28.764,114.623
46516,Allenstown State School,Allenstown,QLD,4700,Primary,Gov,Open,Inner Regional,46516,52833,-23.3919,150.503
46886,Alligator Creek State School,Alligator Creek,QLD,4740,Primary,Gov,Open,Outer Regional,46886,52930,-21.3294,149.212
46396,Allora P-10 State School,Allora,QLD,4362,Combined,Gov,Open,Inner Regional,46396,51964,-28.0366,151.986
46698,Alloway State School,Alloway,QLD,4670,Primary,Gov,Open,Inner Regional,46698,52759,-24.9521,152.378
42940,Alma Public School,Broken Hill,NSW,2880,Primary,Gov,Open,Outer Regional,42940,51109,-31.9822,141.462
46923,Aloomba State School,Aloomba,QLD,4871,Primary,Gov,Open,Outer Regional,46923,53117,-17.1103,145.832
50380,Alpha Omega Senior College,Auburn,NSW,2144,Secondary,Non-Gov,Open,Major Cities,50380,69088,-33.8508,151.031
52618,"Alpha Omega Senior College, Queen Street Campus",Auburn,NSW,2144,Secondary,Non-Gov,Open,Major Cities,50380,85529,-33.8499,151.032
46757,Alpha State School,Alpha,QLD,4724,Combined,Gov,Open,Very Remote,46757,52915,-23.6508,146.642
46316,Alphington Grammar School,Alphington,VIC,3078,Combined,Non-Gov,Open,Major Cities,46316,53338,-37.7804,145.036
44625,Alphington Primary School,Alphington,VIC,3078,Primary,Gov,Open,Major Cities,44625,48100,-37.7835,145.032
50075,Alpurrurulam School,Alpurrurulam,NT,4825,Combined,Gov,Open,Very Remote,50075,56527,-20.9878,137.848
42405,Alstonville High School,Alstonville,NSW,2477,Secondary,Gov,Open,Inner Regional,42405,54740,-28.8399,153.434
42138,Alstonville Public School,Alstonville,NSW,2477,Primary,Gov,Open,Inner Regional,42138,49761,-28.8385,153.438
51521,Alta-1 College,Caboolture,QLD,4510,Secondary,Non-Gov,Open,Major Cities,51521,70253,-27.0713,152.941
52911,Alta-1 College - Sub Campus,Caboolture,QLD,4510,Secondary,Non-Gov,Open,Major Cities,51521,,-27.08539,152.95108
40967,Alta-1 College - Joondalup Campus,Joondalup,WA,6027,Special,Non-Gov,Open,Major Cities,40967,77562,-31.7495,115.763
52749,Alta-1 College - Albany Marine VET Campus,Albany,WA,6330,Special,Non-Gov,Open,Outer Regional,40967,85485,-35.019,117.884
50607,Alta-1 College - Albany Middle School,Albany,WA,6331,Special,Non-Gov,Open,Outer Regional,40967,77618,-34.9856,117.902
50599,Alta-1 College - Albany Senior School,Albany,WA,6330,Special,Non-Gov,Open,Outer Regional,40967,77655,-35.0094,117.879
50598,Alta-1 College - Belmont Campus,Belmont,WA,6104,Special,Non-Gov,Open,Major Cities,40967,77654,-31.9487,115.946
52751,Alta-1 College - Bessemer Road Campus,Port Kennedy,WA,6172,Special,Non-Gov,Open,Major Cities,40967,85973,-32.3691,115.761
53095,Alta-1 College - Camillo,Camillo,WA,6111,Special,Non-Gov,Open,Major Cities,40967,,-32.10304626,116.0065919
52752,Alta-1 College - Collingwood Heights Campus,Collingwood Heights,WA,6330,Special,Non-Gov,Open,Outer Regional,40967,,-34.9904,117.919
50597,Alta-1 College - Como Campus,Como,WA,6152,Special,Non-Gov,Open,Major Cities,40967,77653,-32.001,115.874
51523,Alta-1 College - ConnectEd Campus,Wangara,WA,6065,Special,Non-Gov,Open,Major Cities,40967,77688,-31.7847,115.812
52484,Alta-1 College - Cooper Road Campus,Cockburn Central,WA,6164,Special,Non-Gov,Open,Major Cities,40967,85156,-32.1234,115.841
52487,Alta-1 College - Ellenbrook Campus,Ellenbrook,WA,6069,Special,Non-Gov,Open,Major Cities,40967,85155,-31.7912,115.974
51524,Alta-1 College - Girls' Campus Joondalup,Joondalup,WA,6027,Special,Non-Gov,Open,Major Cities,40967,77687,-31.7499,115.764
52485,Alta-1 College - Hammond Road Campus,Cockburn Central,WA,6164,Special,Non-Gov,Open,Major Cities,40967,85154,-32.123,115.841
40952,Alta-1 College - Huntingdale Campus,Huntingdale,WA,6110,Special,Non-Gov,Open,Major Cities,40967,,-32.0783,115.958
52925,Alta-1 College - Katanning Campus,Katanning,WA,6317,Special,Non-Gov,Open,Outer Regional,40967,87709,-33.682309,117.567586
40951,Alta-1 College - Malaga Campus,Malaga,WA,6090,Special,Non-Gov,Open,Major Cities,40967,77535,-31.8465,115.878
51528,Alta-1 College - Merriwa Campus,Merriwa,WA,6030,Special,Non-Gov,Open,Major Cities,40967,77686,-31.6685,115.717
53145,Alta-1 College - Middle Swan campus,Middle Swan,WA,6056,Special,Non-Gov,Open,Major Cities,40967,,-31.85305997,116.0169136
40978,Alta-1 College - Mullaloo Campus,Mullaloo,WA,6027,Special,Non-Gov,Open,Major Cities,40967,77579,-31.7788,115.746
52750,Alta-1 College - Stockton Road Campus,Port Kennedy,WA,6172,Special,Non-Gov,Open,Major Cities,40967,85976,-32.3691,115.758
52836,Alta-1 College - Winton Road Joondalup Campus,Joondalup,WA,6027,Special,Non-Gov,Open,Major Cities,40967,86704,-31.75176,115.76505
53030,Alta-1 Kimberley College,Kununurra,WA,6743,Special,Non-Gov,Open,Very Remote,53030,85486,-15.79632825,128.6880997
46309,Al-Taqwa College,Hoppers Crossing,VIC,3029,Combined,Non-Gov,Open,Major Cities,46309,45556,-37.8527,144.722
52102,Al-Taqwa College - Olive Branch Annexe,Hoppers Crossing,VIC,3029,Combined,Non-Gov,Open,Major Cities,46309,,-37.8098,144.695
45587,Altona College,Altona,VIC,3018,Combined,Gov,Open,Major Cities,45587,47543,-37.8615,144.817
45141,Altona Green Primary School,Altona Meadows,VIC,3028,Primary,Gov,Open,Major Cities,45141,55020,-37.8866,144.785
45061,Altona Meadows Primary School,Altona Meadows,VIC,3028,Primary,Gov,Open,Major Cities,45061,47647,-37.8685,144.78
44919,Altona North Primary School,Altona North,VIC,3025,Primary,Gov,Open,Major Cities,44919,47582,-37.8369,144.849
44671,Altona Primary School,Altona,VIC,3018,Primary,Gov,Open,Major Cities,44671,45156,-37.8677,144.823
45291,Alvie Primary School,Alvie,VIC,3249,Primary,Gov,Open,Inner Regional,45291,49689,-38.2419,143.503
50051,Alyangula Area School,Alyangula,NT,885,Combined,Gov,Open,Very Remote,50051,47992,-13.8496,136.42
50124,Alyarrmandumanja Umbakumba School,Umbakumba,NT,822,Combined,Gov,Open,Very Remote,50124,47965,-13.85975,136.81193
47237,Amamoor State School,Amamoor,QLD,4570,Primary,Gov,Open,Inner Regional,47237,52351,-26.3465,152.673
50138,Amanbidji School,Timber Creek,NT,852,Combined,Gov,Open,Very Remote,50138,47922,-16.4275,129.618
48268,Amaroo Primary School,Collie,WA,6225,Primary,Gov,Open,Inner Regional,48268,52437,-33.3515,116.15
49882,Amaroo School,Amaroo,ACT,2914,Combined,Gov,Open,Major Cities,49882,57809,-35.16459,149.12774
49561,Amata Anangu School,Amata,SA,5710,Combined,Gov,Open,Very Remote,49561,47515,-26.1522,131.138
41607,Ambarvale High School,Rosemeadow,NSW,2560,Secondary,Gov,Open,Major Cities,41607,54941,-34.1006,150.801
41498,Ambarvale Public School,Ambarvale,NSW,2560,Primary,Gov,Open,Major Cities,41498,50196,-34.0864,150.798
46485,Amberley District State School,Yamanto,QLD,4305,Primary,Gov,Open,Major Cities,46485,51676,-27.6575,152.75
47134,Ambrose State School,Ambrose,QLD,4695,Primary,Gov,Open,Outer Regional,47134,52827,-23.7868,150.922
47720,Ambrose Treacy College,Indooroopilly,QLD,4068,Combined,Non-Gov,Open,Major Cities,47720,55656,-27.5083,152.966
47206,Amiens State School,Amiens,QLD,4380,Primary,Gov,Open,Outer Regional,47206,45142,-28.5946,151.813
44001,"Amity College, Prestons",Prestons,NSW,2170,Combined,Non-Gov,Open,Major Cities,44001,55309,-33.9417,150.876
44006,Amity College Auburn Campus,Auburn,NSW,2144,Primary,Non-Gov,Open,Major Cities,44001,77373,-33.8526,151.034
43925,Amity College Illawarra Campus,Shellharbour,NSW,2529,Combined,Non-Gov,Open,Major Cities,44001,77332,-34.5734,150.864
50076,Amoonguna School,Amoonguna,NT,873,Primary,Gov,Open,Remote,50076,47880,-23.7679,133.939
44330,Amphitheatre Primary School,Amphitheatre,VIC,3468,Primary,Gov,Open,Inner Regional,44330,50878,-37.1841,143.399
50077,Ampilatwatja School,Ampilatwatja,NT,872,Combined,Gov,Open,Very Remote,50077,47903,-21.6537,135.225
45218,Amsleigh Park Primary School,Oakleigh East,VIC,3166,Primary,Gov,Open,Major Cities,45218,56364,-37.9002,145.108
44376,Anakie Primary School,Anakie,VIC,3213,Primary,Gov,Open,Inner Regional,44376,49584,-37.9127,144.255
46730,Anakie State School,The Gemfields,QLD,4702,Primary,Gov,Open,Remote,46730,52857,-23.554,147.746
40392,Andale School,Kew,VIC,3101,Special,Non-Gov,Open,Major Cities,40392,43054,-37.8055,145.036
49353,Andamooka Primary School,Andamooka,SA,5722,Primary,Gov,Open,Very Remote,49353,56469,-30.45,137.167
47189,Andergrove State School,Andergrove,QLD,4740,Primary,Gov,Open,Inner Regional,47189,52931,-21.0862,149.188
45019,Andersons Creek Primary School,Warrandyte,VIC,3113,Primary,Gov,Open,Major Cities,45019,48262,-37.7484,145.208
50565,Andrews Creek Primary School,Wesley Vale,TAS,7307,Primary,Gov,Open,Outer Regional,50565,69970,-41.189,146.459
49224,Angaston Primary School,Angaston,SA,5353,Primary,Gov,Open,Inner Regional,49224,47356,-34.4991,139.051
52446,Angelorum College,Fortitude Valley,QLD,4006,Combined,Non-Gov,Open,Major Cities,52446,80063,-27.4556,153.032
49232,Angle Vale Primary School,Angle Vale,SA,5117,Primary,Gov,Open,Major Cities,49232,47158,-34.6433,138.647
44744,Anglesea Primary School,Anglesea,VIC,3230,Primary,Gov,Open,Inner Regional,44744,49603,-38.3962,144.192
47996,Anglican Church Grammar School,East Brisbane,QLD,4169,Combined,Non-Gov,Open,Major Cities,47996,40430,-27.4822,153.051
50055,Angurugu School,Angurugu,NT,822,Combined,Gov,Open,Very Remote,50055,47949,-13.9825,136.459
41855,Anna Bay Public School,Anna Bay,NSW,2316,Primary,Gov,Open,Inner Regional,41855,49126,-32.7764,152.09
48048,Annandale Christian College,Annandale,QLD,4814,Combined,Non-Gov,Open,Outer Regional,48048,44007,-19.3138,146.776
40989,Annandale North Public School,Annandale,NSW,2038,Primary,Gov,Open,Major Cities,40989,44930,-33.8779,151.172
40988,Annandale Public School,Annandale,NSW,2038,Primary,Gov,Open,Major Cities,40988,45497,-33.8858,151.17
46702,Annandale State School,Annandale,QLD,4814,Primary,Gov,Open,Outer Regional,46702,56446,-19.3155,146.778
41247,Annangrove Public School,Annangrove,NSW,2156,Primary,Gov,Open,Major Cities,41247,47863,-33.6674,150.953
52265,Anne Hamersley Primary School,Ellenbrook,WA,6069,Primary,Gov,Open,Major Cities,52265,70341,-31.7454,116.009
49808,Annesley College,Wayville,SA,5034,Primary,Non-Gov,Open,Major Cities,49808,40280,-34.942,138.598
45973,Annunciation School,Brooklyn,VIC,3012,Primary,Non-Gov,Open,Major Cities,45973,41278,-37.821,144.848
43093,Anson Street School,Orange,NSW,2800,Special,Gov,Open,Inner Regional,43093,56157,-33.2965,149.097
46112,Antonine College,Pascoe Vale South,VIC,3044,Combined,Non-Gov,Open,Major Cities,46112,62824,-37.7412,144.943
46113,Antonine College - Cedar Campus,Coburg,VIC,3058,Combined,Non-Gov,Open,Major Cities,46112,77477,-37.7467,144.978
49781,Antonio Catholic School,Morphett Vale,SA,5162,Primary,Non-Gov,Open,Major Cities,49781,42602,-35.1163,138.525
44866,Antonio Park Primary School,Mitcham,VIC,3132,Primary,Gov,Open,Major Cities,44866,45444,-37.8162,145.206
50011,Anula Primary School,Anula,NT,812,Primary,Gov,Open,Outer Regional,50011,47981,-12.3916,130.894
52051,Anzac Park Public School,Cammeray,NSW,2062,Primary,Gov,Open,Major Cities,52051,70331,-33.8266,151.211
48561,Anzac Terrace Primary School,Bassendean,WA,6054,Primary,Gov,Open,Major Cities,48561,49023,-31.8979,115.937
45292,Apollo Bay P-12 College,Apollo Bay,VIC,3233,Combined,Gov,Open,Inner Regional,45292,49607,-38.7535,143.661
45068,Apollo Parkways Primary School,Greensborough,VIC,3088,Primary,Gov,Open,Major Cities,45068,48219,-37.6874,145.11
45085,Appin Park Primary School,Wangaratta,VIC,3676,Primary,Gov,Open,Inner Regional,45085,51569,-36.3416,146.301
41354,Appin Public School,Appin,NSW,2560,Primary,Gov,Open,Inner Regional,41354,50197,-34.1984,150.788
48270,Applecross Primary School,Applecross,WA,6153,Primary,Gov,Open,Major Cities,48270,52335,-32.0106,115.839
48117,Applecross Senior High School,Ardross,WA,6153,Secondary,Gov,Open,Major Cities,48117,52336,-32.0288,115.834
47095,Applethorpe State School,Applethorpe,QLD,4378,Primary,Gov,Open,Outer Regional,47095,44779,-28.6127,151.955
44230,Apsley Primary School,Apsley,VIC,3319,Primary,Gov,Open,Outer Regional,44230,50019,-36.9737,141.082
43492,Aquinas Catholic College,Menai,NSW,2234,Secondary,Non-Gov,Open,Major Cities,43492,53864,-34.02,151.021
45947,Aquinas College,Ringwood,VIC,3134,Secondary,Non-Gov,Open,Major Cities,45947,40747,-37.823,145.235
47860,Aquinas College,Ashmore,QLD,4214,Secondary,Non-Gov,Open,Major Cities,47860,40411,-27.9751,153.384
48916,Aquinas College,Salter Point,WA,6152,Combined,Non-Gov,Open,Major Cities,48916,55657,-32.024,115.865
40343,Araluen Christian College,Alice Springs,NT,870,Combined,Non-Gov,Open,Remote,40343,55336,-23.7077,133.852
44974,Araluen Primary School,Sale,VIC,3850,Primary,Gov,Open,Inner Regional,44974,52024,-38.1081,147.089
46627,Aramac State School,Aramac,QLD,4726,Combined,Gov,Open,Very Remote,46627,52916,-22.9746,145.243
49883,Aranda Primary School,Aranda,ACT,2614,Primary,Gov,Open,Major Cities,49883,50376,-35.256,149.08
48911,Aranmore Catholic College,Leederville,WA,6007,Secondary,Non-Gov,Open,Major Cities,48911,52856,-31.9274,115.843
48965,Aranmore Catholic Primary School,Leederville,WA,6007,Primary,Non-Gov,Open,Major Cities,48965,48785,-31.9276,115.839
44958,Ararat North Primary School,Ararat,VIC,3377,Primary,Gov,Open,Inner Regional,44958,50589,-37.2746,142.94
44142,Ararat Primary School,Ararat,VIC,3377,Primary,Gov,Open,Inner Regional,44142,50590,-37.2859,142.937
45523,Ararat Secondary College,Ararat,VIC,3377,Secondary,Gov,Open,Inner Regional,45523,50588,-37.286,142.922
52180,Ararat Secondary College-School Farm Campus,Ararat,VIC,3377,Secondary,Gov,Open,Inner Regional,45523,,-37.2929,142.946
44809,Ararat West Primary School,Ararat,VIC,3377,Primary,Gov,Open,Inner Regional,44809,50591,-37.2774,142.921
47086,Aratula State School,Aratula,QLD,4309,Primary,Gov,Open,Inner Regional,47086,51764,-27.981,152.544
49934,Arawang Primary School,Waramanga,ACT,2611,Primary,Gov,Open,Major Cities,49934,54386,-35.355,149.06
48768,Arbor Grove Primary School,Ellenbrook,WA,6069,Primary,Gov,Open,Major Cities,48768,57850,-31.7704,115.962
52493,Arcadia College,Robina,QLD,4226,Special,Non-Gov,Open,Major Cities,52493,70013,-28.0692,153.379
41194,Arcadia Public School,Arcadia,NSW,2159,Primary,Gov,Open,Inner Regional,41194,57392,-33.6235,151.051
42019,Arcadia Vale Public School,Arcadia Vale,NSW,2283,Primary,Gov,Open,Major Cities,42019,48963,-33.0602,151.582
46905,Arcadia Valley State School,Arcadia Valley,QLD,4454,Primary,Gov,Open,Remote,46905,52205,-25.2551,148.821
44869,Ardeer Primary School,Ardeer,VIC,3022,Primary,Gov,Open,Major Cities,44869,47577,-37.781,144.8
44998,Ardeer South Primary School,Sunshine West,VIC,3020,Primary,Gov,Open,Major Cities,44998,44742,-37.7901,144.799
43976,Arden Anglican School,Beecroft,NSW,2119,Primary,Non-Gov,Open,Major Cities,43976,41311,-33.7467,151.065
40919,"Arden Anglican School, Epping campus",Epping,NSW,2121,Secondary,Non-Gov,Open,Major Cities,43976,77430,-33.77013,151.08427
42533,Ardlethan Central School,Ardlethan,NSW,2665,Combined,Gov,Open,Outer Regional,42533,50519,-34.3541,146.901
44311,Ardmona Primary School,Ardmona,VIC,3629,Primary,Gov,Open,Inner Regional,44311,55915,-36.3855,145.313
48271,Ardross Primary School,Ardross,WA,6153,Primary,Gov,Open,Major Cities,48271,52338,-32.0275,115.834
49419,Ardrossan Area School,Ardrossan,SA,5571,Combined,Gov,Open,Outer Regional,49419,56013,-34.4238,137.916
49658,Ardtornish Primary School,St Agnes,SA,5097,Primary,Gov,Open,Major Cities,49658,47080,-34.8336,138.705
48115,Arethusa College,Deception Bay,QLD,4508,Special,Non-Gov,Open,Major Cities,48115,68541,-27.1787,152.987
51489,Arethusa College - Spring Hill Campus,Spring Hill,QLD,4004,Special,Non-Gov,Open,Major Cities,48115,77665,-27.4579,153.028
52445,Arethusa College - Windsor Campus,Windsor,QLD,4030,Special,Non-Gov,Open,Major Cities,48115,84864,-27.4273,153.032
50078,Areyonga School,Areyonga,NT,872,Combined,Gov,Open,Very Remote,50078,47881,-24.0737,132.27
42001,Argenton Public School,Argenton,NSW,2284,Primary,Gov,Open,Major Cities,42001,48985,-32.9385,151.63
42534,Ariah Park Central School,Ariah Park,NSW,2665,Combined,Gov,Open,Outer Regional,42534,50520,-34.3469,147.218
52875,Arise Christian College,Metford,NSW,2323,Special,Non-Gov,Open,Major Cities,52875,86499,-32.76656,151.6083
43943,Arkana College,Kingsgrove,NSW,2208,Primary,Non-Gov,Open,Major Cities,43943,42362,-33.9499,151.099
40836,Arlparra School,Utopia,NT,872,Combined,Gov,Open,Very Remote,40836,68613,-22.0876,134.775
48818,Armadale Education Support Centre,Armadale,WA,6112,Special,Gov,Open,Major Cities,48818,46861,-32.1616,116.016
48272,Armadale Primary School,Armadale,WA,6112,Primary,Gov,Open,Major Cities,48272,50108,-32.1478,116.026
44490,Armadale Primary School,Armadale,VIC,3143,Primary,Gov,Open,Major Cities,44490,48511,-37.8522,145.018
48118,Armadale Senior High School,Armadale,WA,6112,Secondary,Gov,Open,Major Cities,48118,46659,-32.1616,116.016
42410,Armidale City Public School,Armidale,NSW,2350,Primary,Gov,Open,Inner Regional,42410,49372,-30.5195,151.664
52723,Armidale Secondary College,Armidale,NSW,2350,Secondary,Gov,Open,Inner Regional,52723,46436,-30.51925421,151.6532283
52589,Armstrong Creek School,Armstrong Creek,VIC,3217,Primary,Gov,Open,Major Cities,52589,85301,-38.2314,144.364
52923,Armstrong Creek School - Specialist P-12 Campus,Armstrong Creek,VIC,3218,Special,Gov,Open,Major Cities,52589,85547,-38.2315603,144.3641921
41129,Arncliffe Public School,Arncliffe,NSW,2205,Primary,Gov,Open,Major Cities,41129,48585,-33.9405,151.146
40524,Arncliffe West Infants School,Arncliffe,NSW,2205,Primary,Gov,Open,Major Cities,40524,48586,-33.9318,151.145
43960,Arndell Anglican College,Oakville,NSW,2765,Combined,Non-Gov,Open,Major Cities,43960,56719,-33.6201,150.85
40647,Arndell School,North Ryde,NSW,2113,Special,Gov,Open,Major Cities,40647,56158,-33.8032,151.126
51481,Arnolds Creek Primary School,Harkness,VIC,3337,Primary,Gov,Open,Major Cities,51481,70274,-37.6664,144.542
53082,Arrahman College,Austral,NSW,2179,Primary,Non-Gov,Open,Major Cities,53082,,-33.91300107,150.8195609
41313,Arranounbai School,Frenchs Forest,NSW,2086,Special,Gov,Open,Major Cities,41313,56156,-33.7573,151.242
41195,Artarmon Public School,Artarmon,NSW,2064,Primary,Gov,Open,Major Cities,41195,47612,-33.8112,151.186
41848,Arthur Phillip High School,Parramatta,NSW,2150,Secondary,Gov,Open,Major Cities,41848,46461,-33.8164,151.007
44336,Arthurs Creek Primary School,Arthurs Creek,VIC,3099,Primary,Gov,Open,Inner Regional,44336,48236,-37.579,145.203
47404,Arundel State School,Arundel,QLD,4214,Primary,Gov,Open,Major Cities,47404,57393,-27.9451,153.366
43953,Ascham School,Edgecliff,NSW,2027,Combined,Non-Gov,Open,Major Cities,43953,41312,-33.8787,151.237
49273,Ascot Park Primary School,Park Holme,SA,5043,Primary,Gov,Open,Major Cities,49273,46960,-34.9908,138.554
46615,Ascot State School,Ascot,QLD,4007,Primary,Gov,Open,Major Cities,46615,51131,-27.4329,153.056
45022,Ascot Vale Heights School,Ascot Vale,VIC,3032,Special,Gov,Open,Major Cities,45022,46319,-37.7768,144.932
44486,Ascot Vale Primary School,Ascot Vale,VIC,3032,Primary,Gov,Open,Major Cities,44486,46016,-37.7743,144.926
44696,Ascot Vale West Primary School,Ascot Vale,VIC,3032,Primary,Gov,Open,Major Cities,44696,47662,-37.7807,144.911
48675,Ashburton Drive Primary School,Gosnells,WA,6110,Primary,Gov,Open,Major Cities,48675,46038,-32.0866,115.985
44741,Ashburton Primary School,Ashburton,VIC,3147,Primary,Gov,Open,Major Cities,44741,45879,-37.8622,145.084
40990,Ashbury Public School,Ashbury,NSW,2193,Primary,Gov,Open,Major Cities,40990,47773,-33.8988,151.119
44298,Ashby Primary School,Geelong West,VIC,3218,Primary,Gov,Open,Major Cities,44298,46199,-38.1387,144.347
41585,Ashcroft High School,Ashcroft,NSW,2168,Secondary,Gov,Open,Major Cities,41585,46380,-33.9204,150.897
41477,Ashcroft Public School,Ashcroft,NSW,2168,Primary,Gov,Open,Major Cities,41477,48524,-33.9164,150.898
48763,Ashdale Primary School,Darch,WA,6065,Primary,Gov,Open,Major Cities,48763,64015,-31.8079,115.844
48258,Ashdale Secondary College,Darch,WA,6065,Secondary,Gov,Open,Major Cities,48258,67067,-31.8107,115.841
41189,Ashfield Boys High School,Ashfield,NSW,2131,Secondary,Gov,Open,Major Cities,41189,45966,-33.8895,151.129
48273,Ashfield Primary School,Ashfield,WA,6054,Primary,Gov,Open,Major Cities,48273,49026,-31.9148,115.941
40991,Ashfield Public School,Ashfield,NSW,2131,Primary,Gov,Open,Major Cities,40991,47774,-33.8897,151.128
42412,Ashford Central School,Ashford,NSW,2361,Combined,Gov,Open,Outer Regional,42412,49412,-29.3213,151.095
46544,Ashgrove State School,Ashgrove,QLD,4060,Primary,Gov,Open,Major Cities,46544,51192,-27.4481,152.977
52697,Ashley Park Primary School,Doreen,VIC,3754,Primary,Gov,Open,Major Cities,52697,86087,-37.61436,145.127
40253,Ashley School,Deloraine,TAS,7304,Special,Gov,Open,Outer Regional,40253,57394,-41.5249,146.704
42671,Ashmont Public School,Wagga Wagga,NSW,2650,Primary,Gov,Open,Inner Regional,42671,50475,-35.1245,147.333
47294,Ashmore State School,Ashmore,QLD,4214,Primary,Gov,Open,Major Cities,47294,51588,-27.9893,153.381
42072,Ashtonfield Public School,Ashtonfield,NSW,2323,Primary,Gov,Open,Major Cities,42072,66003,-32.7724,151.601
46754,Ashwell State School,Ashwell,QLD,4340,Primary,Gov,Open,Inner Regional,46754,58122,-27.6291,152.557
45518,Ashwood High School,Ashwood,VIC,3147,Secondary,Gov,Open,Major Cities,45518,46191,-37.8641,145.103
45015,Ashwood School,Ashwood,VIC,3147,Special,Gov,Open,Major Cities,45015,48891,-37.8597,145.107
53021,Ashwood School-Garfield North Outdoor Education Centre,Garfield North,VIC,3814,Special,Gov,Open,Inner Regional,45015,,-38.31084846,146.3799644
43796,Aspect Central Coast School,Terrigal,NSW,2260,Special,Non-Gov,Open,Major Cities,43796,44079,-33.444,151.427
52878,Aspect Central Coast School Senior College,Terrigal,NSW,2260,Special,Non-Gov,Open,Major Cities,43796,87166,-33.43586,151.41571
52069,"Aspect Central Coast School, East Gosford",East Gosford,NSW,2250,Special,Non-Gov,Open,Major Cities,43796,,-33.4369,151.352
52325,"Aspect Central Coast School, Noraville",Noraville,NSW,2263,Special,Non-Gov,Open,Major Cities,43796,,-33.2681,151.554
52326,"Aspect Central Coast School, Tuggerah",Tuggerah,NSW,2259,Special,Non-Gov,Open,Major Cities,43796,,-33.298,151.417
52328,"Aspect Central Coast School, Woy Woy",Woy Woy,NSW,2256,Special,Non-Gov,Open,Major Cities,43796,,-33.503,151.304
43768,Aspect Hunter School,Thornton,NSW,2322,Special,Non-Gov,Open,Major Cities,43768,43039,-32.7834,151.637
52073,"Aspect Hunter School, Abermain Satellite",Abermain,NSW,2326,Special,Non-Gov,Open,Major Cities,43768,,-32.8107,151.443
52312,"Aspect Hunter School, Cardiff Satellite",Cardiff,NSW,2285,Special,Non-Gov,Open,Major Cities,43768,,-32.9429,151.666
52890,"Aspect Hunter School, Muswellbrook Satellite",Muswellbrook,NSW,2333,Special,Non-Gov,Open,Inner Regional,43768,,-32.27929,150.88474
52315,"Aspect Hunter School, Port Macquarie High School Satellite",Port Macquarie,NSW,2444,Special,Non-Gov,Open,Inner Regional,43768,,-31.4539,152.897
52314,"Aspect Hunter School, Port Macquarie Primary Satellite",Port Macquarie,NSW,2444,Special,Non-Gov,Open,Inner Regional,43768,,-31.4298,152.897
52317,"Aspect Hunter School, Tarro Satellite",Tarro,NSW,2322,Special,Non-Gov,Open,Major Cities,43768,,-32.8092,151.663
52318,"Aspect Hunter School, Waratah West Satellite",Waratah West,NSW,2289,Special,Non-Gov,Open,Major Cities,43768,,-32.8989,151.716
50250,Aspect Macarthur School,Cobbitty,NSW,2570,Special,Non-Gov,Open,Major Cities,50250,69102,-34.0278,150.701
53003,"Aspect Macarthur School, Airds",Campbelltown South,NSW,2560,Special,Non-Gov,Open,Major Cities,50250,87129,-34.0879816,150.8269358
52080,"Aspect Macarthur School, Campbelltown",Campbelltown,NSW,2560,Special,Non-Gov,Open,Major Cities,50250,,-34.0695,150.818
50429,"Aspect Macarthur School, Holsworthy",Holsworthy,NSW,2173,Special,Non-Gov,Open,Major Cities,50250,77604,-33.988,150.992
50430,"Aspect Macarthur School, Minto",Minto,NSW,2566,Special,Non-Gov,Open,Major Cities,50250,77605,-34.0257,150.853
52364,"Aspect Macarthur School, Northern Rivers Coffs Harbour",Coffs Harbour,NSW,2450,Special,Non-Gov,Open,Inner Regional,50250,77711,-30.2884,153.092
50433,"Aspect Macarthur School, West Hoxton",West Hoxton,NSW,2171,Special,Non-Gov,Open,Major Cities,50250,77613,-33.9322,150.836
50249,Aspect Riverina School,Albury,NSW,2640,Special,Non-Gov,Open,Inner Regional,50249,69104,-36.0843,146.918
50605,"Aspect Riverina School, Kiewa Street Albury Campus",Albury,NSW,2640,Special,Non-Gov,Open,Inner Regional,50249,77610,-36.084,146.916
52638,"Aspect Riverina School, Moresby Park Centre",North Albury,NSW,2640,Special,Non-Gov,Open,Inner Regional,50249,,-36.0538,146.93
50606,"Aspect Riverina School, North Albury Campus",Albury,NSW,2640,Special,Non-Gov,Open,Inner Regional,50249,77611,-36.063,146.935
50604,"Aspect Riverina School, Wagga Wagga Campus",Kooringal,NSW,2650,Special,Non-Gov,Open,Inner Regional,50249,77609,-35.1416,147.375
43813,Aspect South Coast School,Corrimal,NSW,2518,Special,Non-Gov,Open,Major Cities,43813,46747,-34.3639,150.896
53110,"Aspect South Coast School, Albion Park (Albion Park)",Albion Park,NSW,2527,Special,Non-Gov,Open,Major Cities,43813,,-34.5722358,150.763547
52079,"Aspect South Coast School, Barrack Heights",Barrack Heights,NSW,2528,Special,Non-Gov,Open,Major Cities,43813,,-34.5595,150.846
52330,"Aspect South Coast School, Bellambi",Bellambi,NSW,2518,Special,Non-Gov,Open,Major Cities,43813,,-34.3715,150.913
52876,"Aspect South Coast School, Bulli",Bulli,NSW,2519,Special,Non-Gov,Open,Major Cities,43813,87039,-34.3348,150.91351
52331,"Aspect South Coast School, Farmborough Heights",Unanderra,NSW,2526,Special,Non-Gov,Open,Major Cities,43813,,-34.4552,150.828
52332,"Aspect South Coast School, North Wollongong",North Wollongong,NSW,2500,Special,Non-Gov,Open,Major Cities,43813,,-34.4109,150.889
52333,"Aspect South Coast School, Ss Peter and Paul Kiama",Kiama,NSW,2533,Special,Non-Gov,Open,Inner Regional,43813,,-34.6761,150.853
53111,"Aspect South Coast School, Unanderra (Unanderra)",Unanderra,NSW,2526,Special,Non-Gov,Open,Major Cities,43813,,-34.45183909,150.8419588
43927,Aspect South East Sydney School,Peakhurst,NSW,2210,Special,Non-Gov,Open,Major Cities,43927,55942,-33.9723,151.056
52067,"Aspect South East Sydney School, Auburn",Auburn,NSW,2144,Special,Non-Gov,Open,Major Cities,43927,,-33.8501,151.03
52355,"Aspect South East Sydney School, Belfield",Belfield,NSW,2191,Special,Non-Gov,Open,Major Cities,43927,,-33.9011,151.089
52356,"Aspect South East Sydney School, Caringbah",Caringbah,NSW,2229,Special,Non-Gov,Open,Major Cities,43927,,-34.0452,151.123
52357,"Aspect South East Sydney School, Hurstville",Hurstville,NSW,2220,Special,Non-Gov,Open,Major Cities,43927,,-33.9605,151.112
52358,"Aspect South East Sydney School, Kareela",Kareela,NSW,2232,Special,Non-Gov,Open,Major Cities,43927,,-34.0134,151.083
52359,"Aspect South East Sydney School, Leichhardt",Leichhardt,NSW,2040,Special,Non-Gov,Open,Major Cities,43927,,-33.8781,151.152
52998,"Aspect South East Sydney School, Loftus",Loftus,NSW,2232,Special,Non-Gov,Open,Major Cities,43927,87036,-34.04260873,151.052266
52360,"Aspect South East Sydney School, Maroubra",Maroubra,NSW,2035,Special,Non-Gov,Open,Major Cities,43927,,-33.9472,151.252
40897,"Aspect South East Sydney School, Marrickville",Marrickville,NSW,2204,Special,Non-Gov,Open,Major Cities,43927,77287,-33.9061,151.162
52361,"Aspect South East Sydney School, Menai",Menai,NSW,2234,Special,Non-Gov,Open,Major Cities,43927,,-34.0189,151.022
52362,"Aspect South East Sydney School, Regents Park",Regents Park,NSW,2143,Special,Non-Gov,Open,Major Cities,43927,,-33.8784,151.027
52404,Aspect Treetop School,Ashford,SA,5035,Special,Non-Gov,Open,Major Cities,52404,70339,-34.9509,138.575
43769,Aspect Vern Barnett School,Forestville,NSW,2087,Special,Non-Gov,Open,Major Cities,43769,43048,-33.7633,151.219
52322,"Aspect Vern Barnett School, Eastwood",Eastwood,NSW,2122,Special,Non-Gov,Open,Major Cities,43769,,-33.7894,151.079
52059,"Aspect Vern Barnett School, Forestville",Forestville,NSW,2087,Special,Non-Gov,Open,Major Cities,43769,,-33.7606,151.221
52319,"Aspect Vern Barnett School, Lane Cove",Lane Cove,NSW,2066,Special,Non-Gov,Open,Major Cities,43769,,-33.8162,151.169
52320,"Aspect Vern Barnett School, Mona Vale",Mona Vale,NSW,2103,Special,Non-Gov,Open,Major Cities,43769,,-33.6747,151.302
52321,"Aspect Vern Barnett School, St Ives",St Ives,NSW,2075,Special,Non-Gov,Open,Major Cities,43769,,-33.7291,151.166
43823,Aspect Western Sydney School,Wetherill Park,NSW,2164,Special,Non-Gov,Open,Major Cities,43823,44280,-33.8483,150.915
52068,"Aspect Western Sydney School, Blacktown",Blacktown,NSW,2148,Special,Non-Gov,Open,Major Cities,43823,,-33.7741,150.9
52339,"Aspect Western Sydney School, Bourke Street, Richmond",Richmond,NSW,2753,Special,Non-Gov,Open,Major Cities,43823,,-33.6011,150.759
52341,"Aspect Western Sydney School, Castle Hill",Castle Hill,NSW,2154,Special,Non-Gov,Open,Major Cities,43823,,-33.7397,150.997
52343,"Aspect Western Sydney School, Kemps Creek - Emmaus",Kemps Creek,NSW,2178,Special,Non-Gov,Open,Major Cities,43823,,-33.8314,150.791
52344,"Aspect Western Sydney School, Kemps Creek - Trinity",Kemps Creek,NSW,2178,Special,Non-Gov,Open,Major Cities,43823,,-33.8295,150.789
52345,"Aspect Western Sydney School, Lawson",Lawson,NSW,2783,Special,Non-Gov,Open,Major Cities,43823,,-33.7202,150.441
52346,"Aspect Western Sydney School, Quakers Road, Marayong",Marayong,NSW,2148,Special,Non-Gov,Open,Major Cities,43823,,-33.7426,150.886
52347,"Aspect Western Sydney School, Schofields",Schofields,NSW,2762,Special,Non-Gov,Open,Major Cities,43823,,-33.7054,150.892
52348,"Aspect Western Sydney School, Smithfield",Smithfield,NSW,2164,Special,Non-Gov,Open,Major Cities,43823,,-33.8534,150.934
52349,"Aspect Western Sydney School, Springwood",Springwood,NSW,2777,Special,Non-Gov,Open,Major Cities,43823,,-33.6643,150.597
52999,"Aspect Western Sydney School, St Andrews College Senior Campus",Marayong,NSW,2148,Special,Non-Gov,Open,Major Cities,43823,87037,-33.74912172,150.8883226
52350,"Aspect Western Sydney School, St Joseph's",Schofields,NSW,2762,Special,Non-Gov,Open,Major Cities,43823,,-33.7055,150.889
52351,"Aspect Western Sydney School, St Thomas Aquinas",Springwood,NSW,2777,Special,Non-Gov,Open,Major Cities,43823,,-33.6643,150.597
52352,"Aspect Western Sydney School, Windsor Street, Richmond",Richmond,NSW,2753,Special,Non-Gov,Open,Major Cities,43823,,-33.5984,150.758
45153,Aspendale Gardens Primary School,Aspendale Gardens,VIC,3195,Primary,Gov,Open,Major Cities,45153,57169,-38.0225,145.117
44722,Aspendale Primary School,Aspendale,VIC,3195,Primary,Gov,Open,Major Cities,44722,46017,-38.0203,145.1
52579,Aspiri Primary School,Piara Waters,WA,6112,Primary,Gov,Open,Major Cities,52579,84986,-32.1393,115.912
46985,Aspley East State School,Aspley,QLD,4034,Primary,Gov,Open,Major Cities,46985,45148,-27.3619,153.024
47597,Aspley Special School,Aspley,QLD,4034,Special,Gov,Open,Major Cities,47597,57536,-27.3565,153.021
47464,Aspley State High School,Aspley,QLD,4034,Secondary,Gov,Open,Major Cities,47464,51164,-27.3572,153.024
46813,Aspley State School,Aspley,QLD,4034,Primary,Gov,Open,Major Cities,46813,51163,-27.3699,153.015
41330,Asquith Boys High School,Asquith,NSW,2077,Secondary,Gov,Open,Major Cities,41330,47672,-33.6923,151.103
41326,Asquith Girls High School,Asquith,NSW,2077,Secondary,Gov,Open,Major Cities,41326,47673,-33.6897,151.113
41196,Asquith Public School,Asquith,NSW,2077,Primary,Gov,Open,Major Cities,41196,45797,-33.6857,151.112
47859,Assisi Catholic College,Upper Coomera,QLD,4209,Combined,Non-Gov,Open,Major Cities,47859,58057,-27.8585,153.302
48977,Assumption Catholic Primary School,Mandurah,WA,6210,Primary,Non-Gov,Open,Major Cities,48977,42757,-32.51,115.747
47894,Assumption College,Warwick,QLD,4370,Secondary,Non-Gov,Open,Inner Regional,47894,57221,-28.2253,152.028
45647,Assumption College,Kilmore,VIC,3764,Secondary,Non-Gov,Open,Inner Regional,45647,53936,-37.301,144.948
41059,Athelstane Public School,Arncliffe,NSW,2205,Primary,Gov,Open,Major Cities,41059,48587,-33.9374,151.138
49311,Athelstone School,Athelstone,SA,5076,Primary,Gov,Open,Major Cities,49311,45831,-34.8674,138.699
47445,Atherton State High School,Atherton,QLD,4883,Secondary,Gov,Open,Outer Regional,47445,53171,-17.2601,145.486
46895,Atherton State School,Atherton,QLD,4883,Primary,Gov,Open,Outer Regional,46895,45210,-17.2614,145.481
45281,Athol Road Primary School,Springvale South,VIC,3172,Primary,Gov,Open,Major Cities,45281,68792,-37.9703,145.151
52488,Atlantis Beach Baptist College,Two Rocks,WA,6037,Combined,Non-Gov,Open,Inner Regional,52488,80117,-31.4766,115.621
48274,Attadale Primary School,Attadale,WA,6156,Primary,Gov,Open,Major Cities,48274,52376,-32.0257,115.802
42413,Attunga Public School,Attunga,NSW,2345,Primary,Gov,Open,Outer Regional,42413,49369,-30.9304,150.847
48260,Atwell College,Atwell,WA,6164,Secondary,Gov,Open,Major Cities,48260,67698,-32.1454,115.863
48746,Atwell Primary School,Atwell,WA,6164,Primary,Gov,Open,Major Cities,48746,56018,-32.1359,115.868
50315,Aubin Grove Primary School,Aubin Grove,WA,6164,Primary,Gov,Open,Major Cities,50315,68901,-32.1728,115.864
41571,Auburn Girls High School,Auburn,NSW,2144,Secondary,Gov,Open,Major Cities,41571,46471,-33.8429,151.034
50684,Auburn High School,Hawthorn East,VIC,3123,Secondary,Gov,Open,Major Cities,50684,70188,-37.8398,145.045
41355,Auburn North Public School,Auburn,NSW,2144,Primary,Gov,Open,Major Cities,41355,47799,-33.8417,151.039
44532,Auburn Primary School,Hawthorn East,VIC,3123,Primary,Gov,Open,Major Cities,44532,45145,-37.8203,145.051
49315,Auburn Primary School,Auburn,SA,5451,Primary,Gov,Open,Inner Regional,49315,47396,-34.0262,138.684
41551,Auburn Public School,Auburn,NSW,2144,Primary,Gov,Open,Major Cities,41551,47800,-33.854,151.033
44721,Auburn South Primary School,Hawthorn East,VIC,3123,Primary,Gov,Open,Major Cities,44721,48369,-37.8395,145.045
41356,Auburn West Public School,Auburn,NSW,2144,Primary,Gov,Open,Major Cities,41356,47801,-33.8609,151.02
46655,Augathella State School,Augathella,QLD,4477,Primary,Gov,Open,Very Remote,46655,52248,-25.7971,146.583
49555,Augusta Park Primary School,Port Augusta,SA,5700,Primary,Gov,Open,Outer Regional,49555,47502,-32.4956,137.785
48275,Augusta Primary School,Augusta,WA,6290,Primary,Gov,Open,Inner Regional,48275,52512,-34.318,115.158
50254,Augusta State School,Augustine Heights,QLD,4300,Primary,Gov,Open,Major Cities,50254,69247,-27.6558,152.877
51456,Aurora College,Lane Cove North,NSW,2066,Secondary,Gov,Open,Major Cities,51456,85787,-33.8044,151.156
40737,Aurora School,Blackburn South,VIC,3130,Special,Gov,Open,Major Cities,40737,63416,-37.8402,145.151
50562,Aurora Southern Highlands Steiner School,Bowral,NSW,2576,Combined,Non-Gov,Open,Inner Regional,50562,69964,-34.4718,150.419
46598,Aurukun State School,Aurukun,QLD,4892,Combined,Gov,Open,Very Remote,46598,13118,-13.3539,141.729
50318,Austin Cove Baptist College,South Yunderup,WA,6208,Primary,Non-Gov,Open,Major Cities,50318,69057,-32.592497,115.805401
52489,Austin Cove Baptist College - California Crescent Campus,South Yunderup,WA,6208,Secondary,Non-Gov,Open,Major Cities,50318,,-32.5925,115.805
52124,Austin Hospital School,Heidelberg,VIC,3084,Special,Gov,Open,Major Cities,52124,57395,-37.7567,145.059
42718,Austinmer Public School,Austinmer,NSW,2515,Primary,Gov,Open,Major Cities,42718,49986,-34.3054,150.935
50262,Austins Ferry Primary School,Claremont,TAS,7011,Primary,Gov,Open,Inner Regional,50262,69035,-42.7849,147.239
41357,Austral Public School,Austral,NSW,2179,Primary,Gov,Open,Major Cities,41357,48545,-33.9345,150.813
40492,Australia Street Infants School,Newtown,NSW,2042,Primary,Gov,Open,Major Cities,40492,47590,-33.8958,151.178
40231,Australian Christian College - Burnie,Somerset,TAS,7322,Combined,Non-Gov,Open,Outer Regional,40231,53308,-41.0444,145.81
49060,Australian Christian College - Darling Downs,Brookdale,WA,6112,Combined,Non-Gov,Open,Major Cities,49060,44058,-32.1737,116.005
40273,Australian Christian College - Hobart,Geilston Bay,TAS,7015,Combined,Non-Gov,Open,Inner Regional,40273,77399,-42.8395,147.353
40269,Australian Christian College - Launceston,Newnham,TAS,7248,Combined,Non-Gov,Open,Inner Regional,40269,77350,-41.3861,147.127
50240,Australian Christian College - Marsden Park,Riverstone,NSW,2765,Combined,Non-Gov,Open,Major Cities,50240,56453,-33.6782,150.838
47952,Australian Christian College - Moreton,Caboolture,QLD,4510,Combined,Non-Gov,Open,Major Cities,47952,55702,-27.0578,152.953
44029,Australian Christian College - Singleton,Singleton,NSW,2330,Combined,Non-Gov,Open,Inner Regional,44029,48793,-32.5759,151.183
49125,Australian Christian College - Southlands,Albany,WA,6330,Combined,Non-Gov,Open,Outer Regional,49125,56593,-34.9952,117.922
46281,Australian Christian College Hume,Benalla,VIC,3672,Combined,Non-Gov,Open,Inner Regional,46281,69980,-36.5474,145.999
40816,Australian Industry Trade College,Robina,QLD,4226,Secondary,Non-Gov,Open,Major Cities,40816,68118,-28.0919,153.392
52687,Australian Industry Trade College - Sunshine Coast Campus,Maroochydore,QLD,4558,Secondary,Non-Gov,Open,Major Cities,40816,85464,-26.6534,153.089
53103,Australian Industry Trade College - Brisbane,Spring Hill,QLD,4000,Secondary,Non-Gov,Open,Major Cities,53103,,-27.46204238,153.0236473
52822,Australian Industry Trade College - Ipswich,North Ipswich,QLD,4305,Secondary,Non-Gov,Open,Major Cities,52822,86433,-27.60767,152.76133
52243,Australian Industry Trade College - Redlands,Cleveland,QLD,4163,Secondary,Non-Gov,Open,Major Cities,52243,70340,-27.5273,153.283
52792,Australian Industry Trade College - Toowoomba,Toowoomba City,QLD,4350,Secondary,Non-Gov,Open,Inner Regional,52792,86045,-27.55916,151.95562
46297,Australian International Academy of Education,Coburg,VIC,3058,Combined,Non-Gov,Open,Major Cities,46297,77270,-37.7363,144.966
53122,Australian International Academy of Education - Caroline Springs Primary Campus,Caroline Springs,VIC,3023,Primary,Non-Gov,Open,Major Cities,46297,,-37.745788,144.738715
50724,Australian International Academy of Education - Caroline Springs Senior Campus,Caroline Springs,VIC,3023,Combined,Non-Gov,Open,Major Cities,46297,87193,-37.7466,144.739
46298,Australian International Academy of Education - Senior Campus,Coburg North,VIC,3058,Combined,Non-Gov,Open,Major Cities,46297,44270,-37.7265,144.959
50729,"Australian International Academy, Kellyville Campus",North Kellyville,NSW,2155,Combined,Non-Gov,Open,Major Cities,50729,70170,-33.6974,150.963
43940,"Australian International Academy, Sydney, Strathfield Campus",Strathfield,NSW,2135,Combined,Non-Gov,Open,Major Cities,43940,54348,-33.8929,151.089
50381,Australian International High School,Sydney,NSW,2000,Secondary,Non-Gov,Open,Major Cities,50381,,-33.8752,151.206
47989,Australian International Islamic College,Durack,QLD,4077,Combined,Non-Gov,Open,Major Cities,47989,57708,-27.5971,152.988
50717,Australian International Islamic College - Buranda Campus,Buranda,QLD,4102,Combined,Non-Gov,Open,Major Cities,47989,77450,-27.49548,153.036
40980,Australian International Islamic College - Carrara Campus,Carrara,QLD,4211,Combined,Non-Gov,Open,Major Cities,47989,77582,-28.0021,153.356
53024,Australian International Islamic College - Kingston Campus,Kingston,QLD,4114,Primary,Non-Gov,Open,Major Cities,47989,87710,-27.65886453,153.0912216
53112,Australian International Islamic College Darwin,Berrimah,NT,828,Primary,Non-Gov,Open,Outer Regional,53112,,-12.41994528,130.9175261
49103,Australian Islamic College (Dianella),Dianella,WA,6059,Combined,Non-Gov,Open,Major Cities,49103,54588,-31.9027,115.874
49128,Australian Islamic College (Kewdale),Kewdale,WA,6105,Combined,Non-Gov,Open,Major Cities,49128,56671,-31.9809,115.932
49079,Australian Islamic College (Thornlie),Thornlie,WA,6108,Combined,Non-Gov,Open,Major Cities,49079,53273,-32.0538,115.961
52575,Australian Islamic College Adelaide,West Croydon,SA,5008,Combined,Non-Gov,Open,Major Cities,52575,55696,-34.892,138.564
43937,Australian Islamic College of Sydney,Mount Druitt,NSW,2770,Combined,Non-Gov,Open,Major Cities,43937,53436,-33.759,150.83
53000,Australian Islamic College of Sydney Senior School,Rooty Hill,NSW,2766,Secondary,Non-Gov,Open,Major Cities,43937,,-33.75954248,150.8325972
43756,Australian Performing Arts Grammar School,Glebe,NSW,2037,Secondary,Non-Gov,Open,Major Cities,43756,63376,-33.8843,151.194
40683,Australian Science and Mathematics School,Bedford Park,SA,5042,Secondary,Gov,Open,Major Cities,40683,57078,-35.0249,138.573
52454,Australian Technology and Agricultural College,North Maclean,QLD,4280,Secondary,Non-Gov,Open,Major Cities,52454,85249,-27.7781,153.014
40797,Australian Trade College North Brisbane,Scarborough,QLD,4020,Secondary,Non-Gov,Open,Major Cities,40797,67120,-27.2049,153.11
48648,Australind Primary School,Australind,WA,6233,Primary,Gov,Open,Inner Regional,48648,52444,-33.2786,115.727
48235,Australind Senior High School,Australind,WA,6233,Secondary,Gov,Open,Inner Regional,48235,54914,-33.2767,115.728
40402,Autism Queensland Education & Therapy Centre,Sunnybank Hills,QLD,4109,Special,Non-Gov,Open,Major Cities,40402,43130,-27.5977,153.043
40870,Autism Queensland Education & Therapy Centre - Brighton Campus,Brighton,QLD,4017,Special,Non-Gov,Open,Major Cities,40402,77136,-27.2936,153.057
52740,Autism Queensland Education & Therapy Centre - Edmonton Campus,Edmonton,QLD,4869,Special,Non-Gov,Open,Outer Regional,40402,85888,-17.0234,145.737
41251,Avalon Public School,Avalon Beach,NSW,2107,Primary,Gov,Open,Major Cities,41251,47718,-33.6396,151.327
45958,Ave Maria College,Aberfeldie,VIC,3040,Secondary,Non-Gov,Open,Major Cities,45958,40749,-37.7566,144.898
52578,Aveley North Primary School,Aveley,WA,6069,Primary,Gov,Open,Major Cities,52578,84984,-31.7785,115.991
50448,Aveley Primary School,Aveley,WA,6069,Primary,Gov,Open,Major Cities,50448,69653,-31.7902,115.992
52266,Aveley Secondary College,Ellenbrook,WA,6069,Secondary,Gov,Open,Major Cities,52266,84833,-31.7665,115.988
44033,Avenel Primary School,Avenel,VIC,3664,Primary,Gov,Open,Inner Regional,44033,51523,-36.9014,145.235
49505,Avenues College,Windsor Gardens,SA,5087,Combined,Gov,Open,Major Cities,49505,54910,-34.8611,138.657
52149,Avenues Education,Moorabbin,VIC,3189,Special,Gov,Open,Major Cities,52149,,-37.9343,145.036
52134,Avenues Education - Eastern Metropolitan,Ringwood East,VIC,3135,Special,Gov,Open,Major Cities,52149,62866,-37.8078,145.257
47466,Aviation High,Hendra,QLD,4011,Secondary,Gov,Open,Major Cities,47466,51135,-27.4143,153.063
45976,Avila College,Mount Waverley,VIC,3149,Secondary,Non-Gov,Open,Major Cities,45976,40750,-37.8747,145.133
41856,Avoca Beach Public School,Avoca Beach,NSW,2251,Primary,Gov,Open,Major Cities,41856,56159,-33.4712,151.431
44032,Avoca Primary School,Avoca,VIC,3467,Primary,Gov,Open,Inner Regional,44032,50876,-37.0845,143.476
42719,Avoca Public School,Avoca,NSW,2577,Primary,Gov,Open,Inner Regional,42719,50243,-34.5923,150.48
47316,Avoca State School,Avoca,QLD,4670,Primary,Gov,Open,Inner Regional,47316,52760,-24.8836,152.314
44854,Avondale Primary School,Avondale Heights,VIC,3034,Primary,Gov,Open,Major Cities,44854,46744,-37.7662,144.862
43845,Avondale School,Cooranbong,NSW,2265,Combined,Non-Gov,Open,Major Cities,43845,58070,-33.0632,151.465
46788,Avondale State School,Avondale,QLD,4670,Primary,Gov,Open,Inner Regional,46788,52804,-24.7358,152.161
48814,Avonvale Education Support Centre,Northam,WA,6401,Special,Gov,Open,Inner Regional,48814,55142,-31.6462,116.661
48276,Avonvale Primary School,Northam,WA,6401,Primary,Gov,Open,Inner Regional,48276,52575,-31.6464,116.662
41857,Awaba Public School,Awaba,NSW,2283,Primary,Gov,Open,Major Cities,41857,48964,-33.0106,151.538
40761,Awabakal Environmental Education Centre,Shortland,NSW,2307,Special,Gov,Open,Major Cities,40761,64093,-32.8761,151.696
40743,Awabakal Environmental Education Centre,Dudley,NSW,2290,Special,Gov,Open,Major Cities,40743,64075,-32.9906,151.717
44178,Axedale Primary School,Axedale,VIC,3551,Primary,Gov,Open,Inner Regional,44178,51311,-36.7862,144.501
47413,Ayr State High School,Ayr,QLD,4807,Secondary,Gov,Open,Outer Regional,47413,46524,-19.577,147.41
46709,Ayr State School,Ayr,QLD,4807,Primary,Gov,Open,Outer Regional,46709,52996,-19.5791,147.401
48277,Babakin Primary School,Babakin,WA,6428,Primary,Gov,Open,Remote,48277,52566,-32.1241,118.021
47146,Babinda State School,Babinda,QLD,4861,Combined,Gov,Open,Outer Regional,47146,55046,-17.346,145.913
45525,Bacchus Marsh College,Bacchus Marsh,VIC,3340,Secondary,Gov,Open,Major Cities,45525,50083,-37.6856,144.433
46314,Bacchus Marsh Grammar - Maddingley Campus,Bacchus Marsh,VIC,3340,Combined,Non-Gov,Open,Major Cities,46314,56082,-37.6903,144.432
52624,Bacchus Marsh Grammar - Staughton Vale Farm Campus,Bacchus Marsh,VIC,3340,Combined,Non-Gov,Open,Inner Regional,46314,,-37.8758,144.269
52781,Bacchus Marsh Grammar - Woodlea,Aintree,VIC,3336,Combined,Non-Gov,Open,Major Cities,46314,85798,-37.7256,144.6658
44036,Bacchus Marsh Primary School,Bacchus Marsh,VIC,3340,Primary,Gov,Open,Major Cities,44036,50085,-37.673,144.443
46630,Back Plains State School,Back Plains,QLD,4361,Primary,Gov,Open,Inner Regional,46630,51962,-27.8926,151.784
45159,Baden Powell P-9 College,Hoppers Crossing,VIC,3029,Combined,Gov,Open,Major Cities,45159,54866,-37.8598,144.691
45160,Baden Powell P-9 College-Tarneit Campus,Tarneit,VIC,3029,Combined,Gov,Open,Major Cities,45159,24740,-37.8425,144.695
44584,Badger Creek Primary School,Healesville,VIC,3777,Primary,Gov,Open,Inner Regional,44584,51811,-37.6801,145.533
48278,Badgingarra Primary School,Badgingarra,WA,6521,Primary,Gov,Open,Outer Regional,48278,52646,-30.4026,115.551
40221,Bagdad Primary School,Bagdad,TAS,7030,Primary,Gov,Open,Inner Regional,40221,48351,-42.6249,147.223
45552,Baimbridge College,Hamilton,VIC,3300,Secondary,Gov,Open,Inner Regional,45552,55916,-37.7333,142.015
46348,Bairnsdale Christian Community School,Bairnsdale,VIC,3875,Combined,Non-Gov,Open,Outer Regional,46348,55678,-37.8412,147.578
44135,Bairnsdale Primary School,Bairnsdale,VIC,3875,Primary,Gov,Open,Outer Regional,44135,52087,-37.8274,147.623
45489,Bairnsdale Secondary College,Bairnsdale,VIC,3875,Secondary,Gov,Open,Outer Regional,45489,52086,-37.832,147.622
52230,Bairnsdale Secondary College-Changing Lanes - VCAL,Bairnsdale,VIC,3875,Secondary,Gov,Open,Outer Regional,45489,,-37.8319,147.623
44812,Bairnsdale West Primary School,Bairnsdale,VIC,3875,Primary,Gov,Open,Outer Regional,44812,52088,-37.8245,147.608
46937,Bajool State School,Bajool,QLD,4699,Primary,Gov,Open,Outer Regional,46937,52832,-23.6524,150.647
48279,Bakers Hill Primary School,Bakers Hill,WA,6562,Primary,Gov,Open,Inner Regional,48279,52697,-31.7477,116.462
50012,Bakewell Primary School,Bakewell,NT,832,Primary,Gov,Open,Outer Regional,50012,56528,-12.4936,130.994
47228,Balaclava State School,Mooroobool,QLD,4870,Primary,Gov,Open,Outer Regional,47228,53103,-16.9367,145.745
49454,Balaklava High School,Balaklava,SA,5461,Secondary,Gov,Open,Inner Regional,49454,47403,-34.1503,138.415
49341,Balaklava Primary School,Balaklava,SA,5461,Primary,Gov,Open,Inner Regional,49341,47135,-34.1514,138.416
42868,Balarang Public School,Oak Flats,NSW,2529,Primary,Gov,Open,Major Cities,42868,50032,-34.5598,150.831
48280,Balcatta Primary School,Balcatta,WA,6021,Primary,Gov,Open,Major Cities,48280,48906,-31.8813,115.828
48119,Balcatta Senior High School,Balcatta,WA,6021,Secondary,Gov,Open,Major Cities,48119,48907,-31.8757,115.813
46383,Balcombe Grammar School,Mount Martha,VIC,3934,Combined,Non-Gov,Open,Major Cities,46383,67586,-38.2738,145.033
42414,Bald Blair Public School,Guyra,NSW,2365,Primary,Gov,Open,Outer Regional,42414,49413,-30.2299,151.785
41065,Bald Face Public School,Blakehurst,NSW,2221,Primary,Gov,Open,Major Cities,41065,46131,-33.9968,151.107
46397,Bald Hills State School,Bald Hills,QLD,4036,Primary,Gov,Open,Major Cities,46397,51173,-27.3201,153.007
52281,Baldivis Gardens Primary School,Baldivis,WA,6171,Primary,Gov,Open,Major Cities,52281,84837,-32.3011,115.812
48281,Baldivis Primary School,Baldivis,WA,6171,Primary,Gov,Open,Major Cities,48281,45233,-32.3077,115.818
50540,Baldivis Secondary College,Baldivis,WA,6171,Secondary,Gov,Open,Major Cities,50540,70082,-32.3345,115.828
48611,Baler Primary School,South Hedland,WA,6722,Primary,Gov,Open,Remote,48611,52748,-20.4049,118.613
48282,Balga Primary School,Balga,WA,6061,Primary,Gov,Open,Major Cities,48282,46119,-31.8611,115.845
48153,Balga Senior High School,Balga,WA,6061,Secondary,Gov,Open,Major Cities,48153,46666,-31.8517,115.845
41248,Balgowlah Heights Public School,Balgowlah,NSW,2093,Primary,Gov,Open,Major Cities,41248,47693,-33.8057,151.258
41269,Balgowlah North Public School,North Balgowlah,NSW,2093,Primary,Gov,Open,Major Cities,41269,47694,-33.7833,151.246
42721,Balgownie Public School,Balgownie,NSW,2519,Primary,Gov,Open,Major Cities,42721,50002,-34.387,150.872
48283,Balingup Primary School,Balingup,WA,6253,Primary,Gov,Open,Inner Regional,48283,52457,-33.7867,115.982
48245,Ballajura Community College,Ballajura,WA,6066,Secondary,Gov,Open,Major Cities,48245,54647,-31.8441,115.892
48698,Ballajura Primary School,Ballajura,WA,6066,Primary,Gov,Open,Major Cities,48698,54915,-31.8352,115.892
44964,Ballam Park Primary School,Frankston,VIC,3199,Primary,Gov,Open,Major Cities,44964,49435,-38.1475,145.158
44281,Ballan Primary School,Ballan,VIC,3342,Primary,Gov,Open,Inner Regional,44281,50111,-37.6017,144.231
47044,Ballandean State School,Ballandean,QLD,4382,Primary,Gov,Open,Outer Regional,47044,51985,-28.7986,151.842
46384,Ballarat Christian College,Sebastopol,VIC,3356,Combined,Non-Gov,Open,Inner Regional,46384,66580,-37.5933,143.843
46146,Ballarat Clarendon College,Ballarat,VIC,3350,Combined,Non-Gov,Open,Inner Regional,46146,56351,-37.5596,143.834
46147,Ballarat Clarendon College - Second Campus,Ballarat,VIC,3350,Combined,Non-Gov,Open,Inner Regional,46146,77328,-37.5585,143.851
53124,Ballarat Clarendon College - Yuulong Campus,Yuulong,VIC,3237,Combined,Non-Gov,Open,Outer Regional,46146,,-38.73703868,143.3045101
46166,Ballarat Grammar,Wendouree,VIC,3355,Combined,Non-Gov,Open,Inner Regional,46166,56352,-37.5392,143.831
52405,Ballarat Grammar - Mount Rowan Campus,Mount Rowan,VIC,3352,Combined,Non-Gov,Open,Inner Regional,46166,77722,-37.5042,143.837
45350,Ballarat High School,Ballarat,VIC,3350,Secondary,Gov,Open,Inner Regional,45350,50119,-37.5542,143.818
44790,Ballarat North Primary School,Ballarat,VIC,3350,Primary,Gov,Open,Inner Regional,44790,50120,-37.5401,143.863
44038,Ballarat Primary School (Dana Street),Ballarat,VIC,3350,Primary,Gov,Open,Inner Regional,44038,56441,-37.564,143.854
44831,Ballarat Specialist School,Lake Gardens,VIC,3355,Special,Gov,Open,Inner Regional,44831,46159,-37.5524,143.819
44832,Ballarat Specialist School - Midlands Farm Campus,Invermay Park,VIC,3350,Special,Gov,Open,Inner Regional,44831,28962,-37.5352,143.855
46355,Ballarat Steiner School,Mount Helen,VIC,3350,Primary,Non-Gov,Open,Inner Regional,46355,56958,-37.6408,143.862
44653,Balliang East Primary School,Balliang East,VIC,3340,Primary,Gov,Open,Inner Regional,44653,50087,-37.7949,144.415
42941,Ballimore Public School,Ballimore,NSW,2830,Primary,Gov,Open,Outer Regional,42941,51039,-32.1936,148.9
42383,Ballina Coast High School,Ballina,NSW,2478,Secondary,Gov,Open,Inner Regional,42383,49764,-28.8666,153.565
42139,Ballina Public School,Ballina,NSW,2478,Primary,Gov,Open,Inner Regional,42139,49765,-28.8697,153.564
41130,Balmain Public School,Balmain,NSW,2041,Primary,Gov,Open,Major Cities,41130,47588,-33.8592,151.183
45602,Balmoral K-12 Community College,Balmoral,VIC,3407,Combined,Gov,Open,Outer Regional,45602,50692,-37.2406,141.827
47437,Balmoral State High School,Balmoral,QLD,4171,Secondary,Gov,Open,Major Cities,47437,46547,-27.4563,153.073
44343,Balnarring Primary School,Balnarring,VIC,3926,Primary,Gov,Open,Major Cities,44343,54903,-38.3763,145.123
42535,Balranald Central School,Balranald,NSW,2715,Combined,Gov,Open,Outer Regional,42535,46377,-34.6363,143.564
45351,Balwyn High School,Balwyn North,VIC,3104,Secondary,Gov,Open,Major Cities,45351,48243,-37.7979,145.077
44766,Balwyn North Primary School,Balwyn North,VIC,3104,Primary,Gov,Open,Major Cities,44766,48244,-37.7964,145.076
44181,Balwyn Primary School,Balwyn,VIC,3103,Primary,Gov,Open,Major Cities,44181,48241,-37.8139,145.082
48633,Bambara Primary School,Padbury,WA,6025,Primary,Gov,Open,Major Cities,48633,48954,-31.7977,115.761
46761,Banana State School,Banana,QLD,4702,Primary,Gov,Open,Outer Regional,46761,52858,-24.47,150.13
44791,Bandiana Primary School,Bandiana,VIC,3691,Primary,Gov,Open,Inner Regional,44791,51641,-36.153,146.927
42140,Bangalow Public School,Bangalow,NSW,2479,Primary,Gov,Open,Inner Regional,42140,49770,-28.6855,153.526
41110,Bangor Public School,Bangor,NSW,2234,Primary,Gov,Open,Major Cities,41110,48669,-34.0195,151.029
50139,Baniyala Garrangali School,East Arnhem,NT,822,Combined,Gov,Open,Very Remote,50139,67690,-13.2004,136.226
41769,Banks Public School,St Clair,NSW,2759,Primary,Gov,Open,Major Cities,41769,56160,-33.7937,150.773
47396,Banksia Beach State School,Banksia Beach,QLD,4507,Primary,Gov,Open,Inner Regional,47396,54431,-27.0462,153.148
48744,Banksia Grove Primary School,Banksia Grove,WA,6031,Primary,Gov,Open,Major Cities,48744,57462,-31.7024,115.808
40834,Banksia Montessori School,Dianella,WA,6059,Primary,Non-Gov,Open,Major Cities,40834,68580,-31.8925,115.869
49600,Banksia Park International High School,Banksia Park,SA,5091,Secondary,Gov,Open,Major Cities,49600,47059,-34.8144,138.726
48697,Banksia Park Primary School,Leeming,WA,6149,Primary,Gov,Open,Major Cities,48697,54931,-32.0717,115.875
49569,Banksia Park School R-6,Banksia Park,SA,5091,Primary,Gov,Open,Major Cities,49569,47061,-34.8089,138.726
41462,Banksia Road Public School,Greenacre,NSW,2190,Primary,Gov,Open,Major Cities,41462,48555,-33.9069,151.05
40992,Banksmeadow Public School,Botany,NSW,2019,Primary,Gov,Open,Major Cities,40992,46390,-33.9537,151.207
41572,Bankstown Girls High School,Bankstown,NSW,2200,Secondary,Gov,Open,Major Cities,41572,46340,-33.9208,151.032
40806,Bankstown Hospital School,Bankstown,NSW,2200,Special,Gov,Open,Major Cities,40806,67662,-33.9334,151.021
41360,Bankstown North Public School,Bankstown,NSW,2200,Primary,Gov,Open,Major Cities,41360,48574,-33.9049,151.038
41552,Bankstown Public School,Bankstown,NSW,2200,Primary,Gov,Open,Major Cities,41552,48575,-33.9211,151.034
40638,Bankstown Senior College,Bankstown,NSW,2200,Secondary,Gov,Open,Major Cities,40638,55388,-33.9291,151.023
40523,Bankstown South Infants School,Bankstown,NSW,2200,Primary,Gov,Open,Major Cities,40523,48576,-33.9312,151.038
41457,Bankstown West Public School,Bankstown,NSW,2200,Primary,Gov,Open,Major Cities,41457,48578,-33.9158,151.02
48639,Bannister Creek Primary School,Lynwood,WA,6147,Primary,Gov,Open,Major Cities,48639,52350,-32.041,115.928
44168,Bannockburn P-12 College,Bannockburn,VIC,3331,Combined,Gov,Open,Inner Regional,44168,50044,-38.0471,144.17
42387,Banora Point High School,Banora Point,NSW,2486,Secondary,Gov,Open,Major Cities,42387,56648,-28.2155,153.525
42141,Banora Point Public School,Banora Point,NSW,2486,Primary,Gov,Open,Major Cities,42141,49515,-28.2224,153.544
44627,Banyan Fields Primary School,Carrum Downs,VIC,3201,Primary,Gov,Open,Major Cities,44627,49449,-38.0948,145.187
44824,Banyule Primary School,Rosanna,VIC,3084,Primary,Gov,Open,Major Cities,44824,48116,-37.7434,145.078
42942,Baradine Central School,Baradine,NSW,2396,Combined,Gov,Open,Remote,42942,46402,-30.9507,149.07
47200,Baralaba State School,Baralaba,QLD,4702,Combined,Gov,Open,Outer Regional,47200,52859,-24.1811,149.81
44440,Baranduda Primary School,Baranduda,VIC,3691,Primary,Gov,Open,Inner Regional,44440,51624,-36.1805,146.948
46770,Barcaldine Prep-12 State School,Barcaldine,QLD,4725,Combined,Gov,Open,Very Remote,46770,46548,-23.559,145.294
41468,Bardia Public School,Bardia,NSW,2565,Primary,Gov,Open,Major Cities,41468,48550,-33.9753,150.858
47001,Bardon State School,Bardon,QLD,4065,Primary,Gov,Open,Major Cities,47001,51200,-27.4599,152.972
40525,Bardwell Park Infants School,Bardwell Park,NSW,2207,Primary,Gov,Open,Major Cities,40525,48591,-33.9335,151.125
42536,Barellan Central School,Barellan,NSW,2665,Combined,Gov,Open,Outer Regional,42536,50521,-34.2878,146.572
46856,Bargara State School,Mon Repos,QLD,4670,Primary,Gov,Open,Inner Regional,46856,52761,-24.8224,152.439
41361,Bargo Public School,Bargo,NSW,2574,Primary,Gov,Open,Inner Regional,41361,50234,-34.2929,150.583
42710,Barham High School,Barham,NSW,2732,Secondary,Gov,Open,Outer Regional,42710,50671,-35.623,144.132
42537,Barham Public School,Barham,NSW,2732,Primary,Gov,Open,Outer Regional,42537,50672,-35.6269,144.128
45005,Baringa Special School,Moe,VIC,3825,Special,Gov,Open,Inner Regional,45005,46314,-38.1917,146.257
52223,Baringa Special School-Baringa Homestead,Childers,VIC,3824,Special,Gov,Open,Inner Regional,45005,29091,-38.2961,146.126
52608,Baringa State Primary School,Baringa,QLD,4551,Primary,Gov,Open,Major Cities,52608,85138,-26.8102,153.083
52886,Baringa State Secondary College,Baringa,QLD,4551,Secondary,Gov,Open,Major Cities,52886,86960,-26.80513,153.07746
43838,Barker College,Hornsby,NSW,2077,Secondary,Non-Gov,Open,Major Cities,43838,42245,-33.7092,151.099
50417,Barker College Junior School,Waitara,NSW,2077,Primary,Non-Gov,Open,Major Cities,43838,,-33.7137,151.101
42142,Barkers Vale Public School,Wadeville,NSW,2474,Primary,Gov,Open,Inner Regional,42142,49751,-28.549,153.149
46889,Barkly Highway State School,Soldiers Hill,QLD,4825,Primary,Gov,Open,Remote,46889,53058,-20.7077,139.489
42538,Barmedman Public School,Barmedman,NSW,2668,Primary,Gov,Open,Outer Regional,42538,50527,-34.1483,147.385
49352,Barmera Primary School,Barmera,SA,5345,Primary,Gov,Open,Outer Regional,49352,47348,-34.2516,140.478
44296,Barnawartha Primary School,Barnawartha,VIC,3688,Primary,Gov,Open,Inner Regional,44296,51606,-36.1013,146.676
41777,Barnier Public School,Quakers Hill,NSW,2763,Primary,Gov,Open,Major Cities,41777,54672,-33.7205,150.902
41858,Barnsley Public School,Barnsley,NSW,2278,Primary,Gov,Open,Major Cities,41858,49127,-32.9331,151.595
42539,Barooga Public School,Barooga,NSW,3644,Primary,Gov,Open,Inner Regional,42539,50460,-35.913,145.696
42415,Barraba Central School,Barraba,NSW,2347,Combined,Gov,Open,Outer Regional,42415,49371,-30.3824,150.599
42887,Barrack Heights Public School,Barrack Heights,NSW,2528,Primary,Gov,Open,Major Cities,42887,50023,-34.5591,150.846
52928,Barramurra Public School,Oran Park,NSW,2570,Primary,Gov,Open,Major Cities,52928,87048,-34.015367,150.755514
41342,Barrenjoey High School,Avalon Beach,NSW,2107,Secondary,Gov,Open,Major Cities,41342,47719,-33.6312,151.334
40697,Barrenjoey Montessori School,Avalon,NSW,2107,Primary,Non-Gov,Open,Major Cities,40697,57547,-33.6312,151.334
40687,Barrett Adolescent Centre Special School,Tennyson,QLD,4105,Special,Gov,Open,Major Cities,40687,57396,-27.5272,153.003
42143,Barrington Public School,Barrington,NSW,2422,Primary,Gov,Open,Outer Regional,42143,49523,-31.9715,151.911
47244,Bartle Frere State School,Bartle Frere,QLD,4861,Primary,Gov,Open,Outer Regional,47244,53119,-17.4446,145.885
52471,Barton Primary School,Cranbourne West,VIC,3977,Primary,Gov,Open,Major Cities,52471,84899,-38.1155,145.242
50079,Barunga School,Barunga,NT,852,Combined,Gov,Open,Very Remote,50079,46731,-14.5246,132.866
44314,Barwon Heads Primary School,Barwon Heads,VIC,3227,Primary,Gov,Open,Inner Regional,44314,49600,-38.2811,144.487
42512,Barwon Learning Centre,Moree,NSW,2400,Special,Gov,Open,Outer Regional,42512,63773,-29.4821,149.842
45178,Barwon Valley School,Belmont,VIC,3216,Special,Gov,Open,Major Cities,45178,55104,-38.1788,144.328
42144,Baryulgil Public School,Baryulgil,NSW,2460,Primary,Gov,Open,Outer Regional,42144,49683,-29.2235,152.606
49354,Basket Range Primary School,Basket Range,SA,5138,Primary,Gov,Open,Inner Regional,49354,47168,-34.9383,138.767
40597,Bass Coast College,Wonthaggi,VIC,3995,Secondary,Gov,Open,Inner Regional,40597,52276,-38.6098,145.597
52240,Bass Coast College-Community VCAL Program Campus,Wonthaggi,VIC,3995,Secondary,Gov,Open,Inner Regional,40597,,-38.5901,145.583
45514,Bass Coast College-Dudley Campus,Wonthaggi,VIC,3995,Secondary,Gov,Open,Inner Regional,40597,27901,-38.5922,145.581
45589,Bass Coast Specialist School,Wonthaggi,VIC,3995,Special,Gov,Open,Inner Regional,45589,68199,-38.61,145.598
41567,Bass High School,Bass Hill,NSW,2197,Secondary,Gov,Open,Major Cities,41567,48570,-33.8979,150.989
41362,Bass Hill Public School,Bass Hill,NSW,2197,Primary,Gov,Open,Major Cities,41362,48571,-33.9059,151.006
45077,Bass Valley Primary School,Corinella,VIC,3984,Primary,Gov,Open,Inner Regional,45077,52247,-38.4312,145.489
48285,Bassendean Primary School,Bassendean,WA,6054,Primary,Gov,Open,Major Cities,48285,49031,-31.9076,115.954
50052,Batchelor Area School,Batchelor,NT,845,Combined,Gov,Open,Remote,50052,47950,-13.0461,131.033
42054,Bateau Bay Public School,Bateau Bay,NSW,2261,Primary,Gov,Open,Major Cities,42054,48725,-33.3918,151.476
48566,Bateman Primary School,Bateman,WA,6150,Primary,Gov,Open,Major Cities,48566,52344,-32.0512,115.845
42935,Batemans Bay High School,Batehaven,NSW,2536,Secondary,Gov,Open,Inner Regional,42935,54942,-35.729,150.195
42722,Batemans Bay Public School,Surfside,NSW,2536,Primary,Gov,Open,Inner Regional,42722,50056,-35.7001,150.188
41126,Bates Drive School,Kareela,NSW,2232,Special,Gov,Open,Major Cities,41126,56161,-34.0222,151.085
42943,Bathurst Public School,Bathurst,NSW,2795,Primary,Gov,Open,Inner Regional,42943,50975,-33.4209,149.571
43067,Bathurst South Public School,Bathurst,NSW,2795,Primary,Gov,Open,Inner Regional,43067,50976,-33.4331,149.569
43066,Bathurst West Public School,Bathurst,NSW,2795,Primary,Gov,Open,Inner Regional,43066,50977,-33.4118,149.559
42540,Batlow Technology School,Batlow,NSW,2730,Combined,Gov,Open,Outer Regional,42540,46415,-35.523,148.147
46674,Bauhinia State School,Bauhinia,QLD,4718,Primary,Gov,Open,Remote,46674,52902,-24.5667,149.296
41828,Baulkham Hills High School,Baulkham Hills,NSW,2153,Secondary,Gov,Open,Major Cities,41828,47852,-33.7502,150.991
41295,Baulkham Hills North Public School,Baulkham Hills,NSW,2153,Primary,Gov,Open,Major Cities,41295,47853,-33.7519,151
46969,Bauple State School,Bauple,QLD,4650,Primary,Gov,Open,Inner Regional,46969,52701,-25.8121,152.623
44545,Baxter Primary School,Baxter,VIC,3911,Primary,Gov,Open,Major Cities,44545,52127,-38.1993,145.181
47267,Bay View State School,Thornlands,QLD,4164,Primary,Gov,Open,Major Cities,47267,67705,-27.5637,153.262
52721,Bayanami Public School,Parramatta,NSW,2150,Primary,Gov,Open,Major Cities,52721,85786,-33.8096,151.002
45212,Bayles Regional Primary School,Bayles,VIC,3981,Primary,Gov,Open,Inner Regional,45212,52238,-38.1767,145.566
50543,Baynton West Primary School,Baynton,WA,6714,Primary,Gov,Open,Remote,50543,70070,-20.7536,116.799
46271,Bayside Christian College,Langwarrin South,VIC,3911,Combined,Non-Gov,Open,Major Cities,46271,44000,-38.1786,145.163
48052,Bayside Christian College Hervey Bay,Urraween,QLD,4655,Combined,Non-Gov,Open,Inner Regional,48052,54137,-25.2984,152.816
45538,Bayside P-12 College,Williamstown,VIC,3016,Combined,Gov,Open,Major Cities,45538,56370,-37.8577,144.885
50270,Bayside P-12 College-Altona North Campus,Altona North,VIC,3025,Combined,Gov,Open,Major Cities,45538,25144,-37.8359,144.846
50196,Bayside P-12 College-Paisley Campus,Newport,VIC,3015,Combined,Gov,Open,Major Cities,45538,6211,-37.8439,144.864
45106,Bayside Special Developmental School,Moorabbin,VIC,3189,Special,Gov,Open,Major Cities,45106,46352,-37.9434,145.057
44711,Bayswater North Primary School,Bayswater North,VIC,3153,Primary,Gov,Open,Major Cities,44711,48994,-37.8288,145.296
44431,Bayswater Primary School,Bayswater,VIC,3153,Primary,Gov,Open,Major Cities,44431,48904,-37.8433,145.259
48286,Bayswater Primary School,Bayswater,WA,6053,Primary,Gov,Open,Major Cities,48286,45472,-31.9207,115.911
45352,Bayswater Secondary College,Bayswater,VIC,3153,Secondary,Gov,Open,Major Cities,45352,48992,-37.839,145.262
44943,Bayswater South Primary School,Bayswater,VIC,3153,Primary,Gov,Open,Major Cities,44943,48998,-37.8549,145.261
44984,Bayswater West Primary School,Bayswater,VIC,3153,Primary,Gov,Open,Major Cities,44984,49001,-37.8496,145.253
48377,Bayulu Remote Community School,Fitzroy Crossing,WA,6765,Primary,Gov,Open,Very Remote,48377,55131,-18.2921,125.584
46161,Bayview College,Portland,VIC,3305,Secondary,Non-Gov,Open,Outer Regional,46161,55834,-38.3452,141.606
40059,Bayview Secondary College,Rokeby,TAS,7019,Secondary,Gov,Open,Inner Regional,40059,46611,-42.8972,147.445
48287,Beachlands Primary School,Geraldton,WA,6530,Primary,Gov,Open,Outer Regional,48287,52652,-28.7871,114.605
47371,Beachmere State School,Beachmere,QLD,4510,Primary,Gov,Open,Major Cities,47371,47521,-27.1315,153.048
49355,Beachport Primary School,Beachport,SA,5280,Primary,Gov,Open,Outer Regional,49355,47299,-37.4754,140.01
41268,Beacon Hill Public School,Beacon Hill,NSW,2100,Primary,Gov,Open,Major Cities,41268,47708,-33.7516,151.261
48288,Beacon Primary School,Beacon,WA,6472,Primary,Gov,Open,Remote,48288,52624,-30.4512,117.868
46282,Beaconhills College,Pakenham,VIC,3810,Combined,Non-Gov,Open,Major Cities,46282,43419,-38.0619,145.467
46283,Beaconhills College - Village Campus,Berwick,VIC,3806,Combined,Non-Gov,Open,Major Cities,46282,77407,-38.0502,145.358
50168,Beaconsfield Primary School,Beaconsfield,WA,6162,Primary,Gov,Open,Major Cities,50168,52389,-32.0683,115.76
50438,Beaconsfield Primary School - Rottnest Island Campus,Rottnest Island,WA,6161,Primary,Gov,Open,Remote,50168,12388,-31.9922,115.539
40243,Beaconsfield Primary School,Beaconsfield,TAS,7270,Primary,Gov,Open,Outer Regional,40243,55866,-41.2032,146.822
44547,Beaconsfield Primary School,Beaconsfield,VIC,3807,Primary,Gov,Open,Major Cities,44547,51850,-38.0488,145.372
47220,Beaconsfield State School,Beaconsfield,QLD,4740,Primary,Gov,Open,Inner Regional,47220,57397,-21.093,149.171
44480,Beaconsfield Upper Primary School,Beaconsfield Upper,VIC,3808,Primary,Gov,Open,Major Cities,44480,51851,-37.9957,145.415
44134,Bealiba Primary School,Bealiba,VIC,3475,Primary,Gov,Open,Inner Regional,44134,50884,-36.7899,143.552
47468,Beaudesert State High School,Beaudesert,QLD,4285,Secondary,Gov,Open,Inner Regional,47468,51636,-27.9708,152.997
46518,Beaudesert State School,Beaudesert,QLD,4285,Primary,Gov,Open,Inner Regional,46518,51635,-27.9889,153.002
44041,Beaufort Primary School,Beaufort,VIC,3373,Primary,Gov,Open,Inner Regional,44041,50583,-37.4385,143.382
45353,Beaufort Secondary College,Beaufort,VIC,3373,Secondary,Gov,Open,Inner Regional,45353,50582,-37.4383,143.383
44847,Beaumaris North Primary School,Beaumaris,VIC,3193,Primary,Gov,Open,Major Cities,44847,49297,-37.9741,145.036
44667,Beaumaris Primary School,Beaumaris,VIC,3193,Primary,Gov,Open,Major Cities,44667,49310,-37.9853,145.038
48714,Beaumaris Primary School,Ocean Reef,WA,6027,Primary,Gov,Open,Major Cities,48714,54936,-31.7485,115.735
52592,Beaumaris Secondary College,Beaumaris,VIC,3193,Secondary,Gov,Open,Major Cities,52592,85307,-37.9816,145.034
41783,Beaumont Hills Public School,Beaumont Hills,NSW,2155,Primary,Gov,Open,Major Cities,41783,56691,-33.6978,150.946
41266,Beaumont Road Public School,Killara,NSW,2071,Primary,Gov,Open,Major Cities,41266,47628,-33.7743,151.146
41307,Beauty Point Public School,Mosman,NSW,2088,Primary,Gov,Open,Major Cities,41307,44412,-33.812,151.242
48319,Beckenham Primary School,Beckenham,WA,6107,Primary,Gov,Open,Major Cities,48319,49880,-32.0239,115.957
42541,Beckom Public School,Beckom,NSW,2665,Primary,Gov,Open,Outer Regional,42541,50522,-34.3272,146.963
43210,Bede Polding College,South Windsor,NSW,2756,Secondary,Non-Gov,Open,Major Cities,43210,45541,-33.6315,150.796
42944,Bedgerabong Public School,Bedgerabong,NSW,2871,Primary,Gov,Open,Outer Regional,42944,51098,-33.3614,147.679
46993,Bedourie State School,Bedourie,QLD,4829,Primary,Gov,Open,Very Remote,46993,52257,-24.3605,139.471
44092,Beeac Primary School,Beeac,VIC,3251,Primary,Gov,Open,Inner Regional,44092,49703,-38.194,143.644
49085,Beechboro Christian School,Beechboro,WA,6063,Primary,Non-Gov,Open,Major Cities,49085,54234,-31.8571,115.933
48694,Beechboro Primary School,Beechboro,WA,6063,Primary,Gov,Open,Major Cities,48694,55132,-31.8686,115.936
46846,Beechmont State School,Beechmont,QLD,4211,Primary,Gov,Open,Inner Regional,46846,51568,-28.1245,153.186
42145,Beechwood Public School,Wauchope,NSW,2446,Primary,Gov,Open,Inner Regional,42145,49643,-31.4355,152.681
46382,Beechworth Montessori School,Beechworth,VIC,3747,Primary,Non-Gov,Open,Inner Regional,46382,66868,-36.367,146.693
44310,Beechworth Primary School,Beechworth,VIC,3747,Primary,Gov,Open,Inner Regional,44310,51723,-36.3554,146.694
45354,Beechworth Secondary College,Beechworth,VIC,3747,Secondary,Gov,Open,Inner Regional,45354,51722,-36.3472,146.691
41198,Beecroft Public School,Beecroft,NSW,2119,Primary,Gov,Open,Major Cities,41198,47758,-33.7521,151.065
42542,Beelbangera Public School,Beelbangera,NSW,2680,Primary,Gov,Open,Outer Regional,42542,50539,-34.2528,146.101
48739,Beeliar Primary School,Beeliar,WA,6164,Primary,Gov,Open,Major Cities,48739,56617,-32.1327,115.822
47609,Beenleigh Special School,Mount Warren Park,QLD,4207,Special,Gov,Open,Major Cities,47609,57398,-27.7243,153.201
47469,Beenleigh State High School,Beenleigh,QLD,4207,Secondary,Gov,Open,Major Cities,47469,51552,-27.715,153.204
40709,Eagleby Learning Centre - Centre for Continuing Secondary Education,Eagleby,QLD,4207,Secondary,Gov,Open,Major Cities,47469,17851,-27.6946,153.213
46398,Beenleigh State School,Beenleigh,QLD,4207,Primary,Gov,Open,Major Cities,46398,51550,-27.7179,153.2
52655,Beenyup Primary School,Byford,WA,6122,Primary,Gov,Open,Major Cities,52655,86439,-32.231332,115.991297
47198,Beerburrum State School,Beerburrum,QLD,4517,Primary,Gov,Open,Inner Regional,47198,52303,-26.9568,152.957
47494,Beerwah State High School,Beerwah,QLD,4519,Secondary,Gov,Open,Inner Regional,47494,54435,-26.8628,152.954
46786,Beerwah State School,Beerwah,QLD,4519,Primary,Gov,Open,Inner Regional,46786,52305,-26.8559,152.94
50013,Bees Creek Primary School,Freds Pass,NT,822,Primary,Gov,Open,Outer Regional,50013,56529,-12.5408,131.053
42907,Bega High School,Bega,NSW,2550,Secondary,Gov,Open,Outer Regional,42907,50182,-36.6767,149.839
42723,Bega Valley Public School,Bega,NSW,2550,Primary,Gov,Open,Outer Regional,42723,69739,-36.6705,149.839
46545,Begonia State School,Begonia Via St George,QLD,4487,Primary,Gov,Open,Remote,46545,52260,-27.33575474,148.3972539
49356,Belair Primary School,Belair,SA,5052,Primary,Gov,Open,Major Cities,49356,46991,-35.0049,138.626
42039,Belair Public School,Adamstown,NSW,2289,Primary,Gov,Open,Major Cities,42039,49044,-32.9462,151.712
49884,Belconnen High School,Hawker,ACT,2614,Secondary,Gov,Open,Major Cities,49884,50377,-35.247,149.039
48822,Beldon Education Support Centre,Beldon,WA,6027,Special,Gov,Open,Major Cities,48822,57400,-31.7744,115.758
48674,Beldon Primary School,Beldon,WA,6027,Primary,Gov,Open,Major Cities,48674,54919,-31.7744,115.758
46752,Belgian Gardens State School,Belgian Gardens,QLD,4810,Primary,Gov,Open,Outer Regional,46752,53005,-19.2509,146.793
46286,Belgrave Heights Christian School,Belgrave Heights,VIC,3160,Combined,Non-Gov,Open,Major Cities,46286,44075,-37.9189,145.346
44617,Belgrave South Primary School,Belgrave South,VIC,3160,Primary,Gov,Open,Major Cities,44617,45408,-37.9305,145.359
44937,Bell Park North Primary School,Bell Park,VIC,3215,Primary,Gov,Open,Major Cities,44937,49472,-38.1061,144.336
52160,Bell Park North Primary School-Geelong English Language Program,Bell Park,VIC,3215,Primary,Gov,Open,Major Cities,44937,,-38.1061,144.336
44738,Bell Primary School,Preston,VIC,3072,Primary,Gov,Open,Major Cities,44738,48076,-37.7479,144.991
46891,Bell State School,Bell,QLD,4408,Combined,Gov,Open,Outer Regional,46891,52056,-26.9397,151.453
52706,Bella Vista Public School,Bella Vista,NSW,2153,Primary,Gov,Open,Major Cities,52706,85772,-33.7265,150.954
44881,Bellaire Primary School,Highton,VIC,3216,Primary,Gov,Open,Major Cities,44881,49477,-38.1795,144.32
42853,Bellambi Public School,Bellambi,NSW,2518,Primary,Gov,Open,Major Cities,42853,49997,-34.3712,150.914
45456,Bellarine Secondary College,Drysdale,VIC,3222,Secondary,Gov,Open,Inner Regional,45456,55639,-38.1911,144.557
45455,Bellarine Secondary College-Ocean Grove Campus,Ocean Grove,VIC,3226,Secondary,Gov,Open,Inner Regional,45456,17815,-38.2585,144.542
42416,Bellata Public School,Bellata,NSW,2397,Primary,Gov,Open,Outer Regional,42416,49496,-29.9187,149.796
52458,Bellbird Park State Secondary College,Bellbird Park,QLD,4300,Secondary,Gov,Open,Major Cities,52458,84955,-27.6412,152.888
41859,Bellbird Public School,Bellbird,NSW,2325,Primary,Gov,Open,Inner Regional,41859,49208,-32.8594,151.317
44076,Bellbrae Primary School,Bellbrae,VIC,3228,Primary,Gov,Open,Inner Regional,44076,45415,-38.3336,144.263
45116,Bellbridge Primary School,Hoppers Crossing,VIC,3029,Primary,Gov,Open,Major Cities,45116,56366,-37.8705,144.711
42146,Bellbrook Public School,Bellbrook,NSW,2440,Primary,Gov,Open,Outer Regional,42146,49608,-30.8191,152.509
45239,Belle Vue Park Primary School,Glenroy,VIC,3046,Primary,Gov,Open,Major Cities,45239,48245,-37.7012,144.944
44816,Belle Vue Primary School,Balwyn North,VIC,3104,Primary,Gov,Open,Major Cities,44816,56439,-37.7819,145.079
47261,Bellenden Ker State School,Bellenden Ker,QLD,4871,Primary,Gov,Open,Outer Regional,47261,53120,-17.2667,145.925
40128,Bellerive Primary School,Bellerive,TAS,7018,Primary,Gov,Open,Inner Regional,40128,48173,-42.8723,147.37
49607,Bellevue Heights Primary School,Bellevue Heights,SA,5050,Primary,Gov,Open,Major Cities,49607,46983,-35.029,138.589
40993,Bellevue Hill Public School,Bellevue Hill,NSW,2023,Primary,Gov,Open,Major Cities,40993,45338,-33.887,151.26
47338,Bellevue Park State School,Ashmore,QLD,4214,Primary,Gov,Open,Major Cities,47338,51589,-27.9954,153.396
43726,Bellfield College,Rossmore,NSW,2557,Combined,Non-Gov,Open,Major Cities,43726,68145,-33.9417,150.765
42385,Bellingen High School,Bellingen,NSW,2454,Secondary,Gov,Open,Outer Regional,42385,46362,-30.4551,152.908
42148,Bellingen Public School,Bellingen,NSW,2454,Primary,Gov,Open,Outer Regional,42148,49676,-30.4535,152.892
52246,Bellmere State School,Bellmere,QLD,4510,Primary,Gov,Open,Major Cities,52246,70354,-27.0936,152.916
41860,Belltrees Public School,Belltrees,NSW,2337,Primary,Gov,Open,Outer Regional,41860,49335,-31.9697,151.123
48290,Belmay Primary School,Cloverdale,WA,6105,Primary,Gov,Open,Major Cities,48290,49867,-31.9496,115.947
44016,Belmont Christian College,Belmont North,NSW,2280,Combined,Non-Gov,Open,Major Cities,44016,43324,-33.0245,151.67
48120,Belmont City College,Belmont,WA,6104,Secondary,Gov,Open,Major Cities,48120,46722,-31.9557,115.936
45355,Belmont High School,Belmont,VIC,3216,Secondary,Gov,Open,Major Cities,45355,49478,-38.1756,144.331
52164,Belmont High School-Tanybryn Camp,Tanybryn,VIC,3249,Secondary,Gov,Open,Inner Regional,45355,29092,-38.6678,143.696
42097,Belmont High School,Belmont,NSW,2280,Secondary,Gov,Open,Major Cities,42097,48739,-33.0262,151.662
42002,Belmont North Public School,Belmont,NSW,2280,Primary,Gov,Open,Major Cities,42002,48740,-33.01987,151.671
44035,Belmont Primary School,Belmont,VIC,3216,Primary,Gov,Open,Major Cities,44035,49510,-38.1707,144.342
48291,Belmont Primary School,Belmont,WA,6104,Primary,Gov,Open,Major Cities,48291,49868,-31.9445,115.922
41861,Belmont Public School,Belmont,NSW,2280,Primary,Gov,Open,Major Cities,41861,57401,-33.0301,151.662
46572,Belmont State School,Carindale,QLD,4152,Primary,Gov,Open,Major Cities,46572,44780,-27.503,153.116
41612,Belmore Boys High School,Belmore,NSW,2192,Secondary,Gov,Open,Major Cities,41612,46391,-33.9166,151.088
41363,Belmore North Public School,Belmore,NSW,2192,Primary,Gov,Open,Major Cities,41363,48559,-33.9099,151.085
44781,Belmore School,Balwyn,VIC,3103,Special,Gov,Open,Major Cities,44781,56367,-37.8043,145.081
41364,Belmore South Public School,Belmore,NSW,2192,Primary,Gov,Open,Major Cities,41364,48560,-33.9257,151.092
48242,Belridge Secondary College,Beldon,WA,6027,Secondary,Gov,Open,Major Cities,48242,54934,-31.7699,115.763
48843,Belridge Secondary Education Support Centre,Beldon,WA,6027,Special,Gov,Open,Major Cities,48843,55135,-31.7699,115.763
41249,Belrose Public School,Belrose,NSW,2085,Primary,Gov,Open,Major Cities,41249,47679,-33.7272,151.217
44899,Belvedere Park Primary School,Seaford,VIC,3198,Primary,Gov,Open,Major Cities,44899,49432,-38.1097,145.147
45093,Belvoir Wodonga Special Developmental School,West Wodonga,VIC,3690,Special,Gov,Open,Inner Regional,45093,46351,-36.1231,146.855
50080,Belyuen School,Belyuen,NT,822,Combined,Gov,Open,Remote,50080,47951,-12.5393,130.701
42724,Bemboka Public School,Bemboka,NSW,2550,Primary,Gov,Open,Outer Regional,42724,50185,-36.6313,149.571
42418,Ben Lomond Public School,Ben Lomond,NSW,2365,Primary,Gov,Open,Outer Regional,42418,49414,-30.017,151.661
42419,Ben Venue Public School,Armidale,NSW,2350,Primary,Gov,Open,Inner Regional,42419,49374,-30.5029,151.675
50569,Benalla P-12 College,Benalla,VIC,3672,Combined,Gov,Open,Inner Regional,50569,69978,-36.5534,145.964
50574,Benalla P-12 College-Avon Street Campus,Benalla,VIC,3672,Combined,Gov,Open,Inner Regional,50569,29985,-36.5474,145.994
50575,Benalla P-12 College-Clarke Street Campus,Benalla,VIC,3672,Combined,Gov,Open,Inner Regional,50569,29986,-36.554,145.968
52206,Benalla P-12 College-Lake Nillacootie Camp,Benalla,VIC,3723,Combined,Gov,Open,Outer Regional,50569,69093,-36.8802,145.996
50573,Benalla P-12 College-Waller Street Campus,Benalla,VIC,3672,Combined,Gov,Open,Inner Regional,50569,29984,-36.5602,145.965
46678,Benaraby State School,Benaraby,QLD,4680,Primary,Gov,Open,Inner Regional,46678,52813,-24.0038,151.324
47208,Benarkin State School,Benarkin,QLD,4314,Primary,Gov,Open,Outer Regional,47208,51677,-26.8845,152.142
48292,Bencubbin Primary School,Bencubbin,WA,6477,Primary,Gov,Open,Remote,48292,52628,-30.8082,117.857
42417,Bendemeer Public School,Bendemeer,NSW,2355,Primary,Gov,Open,Outer Regional,42417,49380,-30.887,151.151
44159,Bendigo Primary School,Bendigo,VIC,3552,Primary,Gov,Open,Inner Regional,44159,51237,-36.7573,144.265
40576,Bendigo Senior Secondary College,Bendigo,VIC,3552,Secondary,Gov,Open,Inner Regional,40576,51235,-36.7551,144.28
52190,Bendigo Senior Secondary College-Netschool Campus,Bendigo,VIC,3550,Secondary,Gov,Open,Inner Regional,40576,29094,-36.7592,144.281
45387,Bendigo South East 7-10 Secondary College,Bendigo,VIC,3550,Secondary,Gov,Open,Inner Regional,45387,51241,-36.7762,144.299
45151,Bendigo Special Developmental School,Kangaroo Flat,VIC,3555,Special,Gov,Open,Inner Regional,45151,56371,-36.7959,144.24
41717,Bennett Road Public School,Colyton,NSW,2760,Primary,Gov,Open,Major Cities,41717,50770,-33.7835,150.792
47529,Benowa State High School,Benowa,QLD,4217,Secondary,Gov,Open,Major Cities,47529,51604,-28.0048,153.389
46735,Benowa State School,Benowa,QLD,4217,Primary,Gov,Open,Major Cities,46735,45431,-28.0077,153.391
45338,Bentleigh Secondary College,Bentleigh East,VIC,3165,Secondary,Gov,Open,Major Cities,45338,54988,-37.9277,145.06
44742,Bentleigh West Primary School,Bentleigh,VIC,3204,Primary,Gov,Open,Major Cities,44742,49451,-37.9206,145.027
46710,Bentley Park College,Bentley Park,QLD,4869,Combined,Gov,Open,Outer Regional,46710,57197,-17.0094,145.74
48293,Bentley Primary School,Bentley,WA,6102,Primary,Gov,Open,Major Cities,48293,49859,-32.0112,115.912
45254,Benton Junior College,Mornington,VIC,3931,Primary,Gov,Open,Major Cities,45254,57509,-38.2459,145.061
41365,Berala Public School,Berala,NSW,2141,Primary,Gov,Open,Major Cities,41365,45498,-33.8697,151.028
44917,Berendale School,Hampton East,VIC,3188,Special,Gov,Open,Major Cities,44917,54882,-37.939,145.032
52148,Berendale School-SMR Secondary Teaching Unit,Hampton East,VIC,3188,Special,Gov,Open,Major Cities,44917,,-37.9389,145.033
46236,Berengarra School,Box Hill North,VIC,3129,Special,Non-Gov,Open,Major Cities,46236,43057,-37.8039,145.132
52424,Berengarra School - Caf Education,Ashwood,VIC,3147,Special,Non-Gov,Open,Major Cities,46236,,-37.8736,145.095
50420,Berengarra School - Pathways Campus,Chadstone,VIC,3148,Special,Non-Gov,Open,Major Cities,46236,77619,-37.876,145.099
41862,Beresfield Public School,Beresfield,NSW,2322,Primary,Gov,Open,Major Cities,41862,49183,-32.8036,151.653
41732,Beresford Road Public School,Greystanes,NSW,2145,Primary,Gov,Open,Major Cities,41732,47802,-33.8145,150.941
42880,Berinba Public School,Yass,NSW,2582,Primary,Gov,Open,Inner Regional,42880,50276,-34.8431,148.915
42725,Berkeley Public School,Berkeley,NSW,2506,Primary,Gov,Open,Major Cities,42725,49969,-34.4802,150.856
41863,Berkeley Vale Public School,Berkeley Vale,NSW,2261,Primary,Gov,Open,Major Cities,41863,48706,-33.3505,151.436
